{"version": 0.6, "generator": "Overpass API 0.7.62.5 1bd436f1", "osm3s": {"timestamp_osm_base": "2025-04-02T22:58:37Z", "copyright": "The data included in this document is from www.openstreetmap.org. The data is made available under ODbL."}, "elements": [{"type": "node", "id": 21141374, "lat": 51.5222699, "lon": -0.1637554}, {"type": "node", "id": 21593237, "lat": 51.5173465, "lon": -0.1189566, "tags": {"addr:city": "London", "addr:housenumber": "6", "addr:postcode": "WC1V 7DX", "addr:street": "Little Turnstile", "amenity": "bar", "cuisine": "polish", "fhrs:id": "424696", "fhrs:local_authority_id": "30976", "food": "yes", "name": "The Polish Bar (Na Zdrowie)", "old_name": "Bar Polski", "toilets": "yes", "toilets:access": "customers"}}, {"type": "node", "id": 21593238, "lat": 51.5163376, "lon": -0.119321, "tags": {"addr:city": "London", "addr:country": "GB", "addr:housenumber": "58", "addr:postcode": "WC2B 6DX", "addr:street": "Kingsway", "amenity": "bar", "brand": "All Bar One", "brand:wikidata": "Q4728624", "brand:wikipedia": "en:All Bar One", "cocktails": "yes", "contact:phone": "+44 20 7269 5171", "contact:website": "http://www.allbarone.co.uk/all-bar-one-kingsway/", "fhrs:id": "424280", "name": "All Bar One", "opening_hours": "Mo-Th 09:00-23:00; Fr-Sa 09:00-24:00; Su 10:00-22:30", "opening_hours:food": "Mo-Sa 09:00-22:00; Su 10:00-22:00", "toilets": "yes", "toilets:access": "customers"}}, {"type": "node", "id": 21693791, "lat": 51.5150736, "lon": -0.0997325, "tags": {"addr:city": "London", "addr:housenumber": "1", "addr:postcode": "EC4M 7DQ", "addr:street": "Rose Steet", "amenity": "bar", "email": "thesaint@wearebar.com", "fhrs:id": "294160", "name": "The Saint", "opening_hours": "Mo-Fr 10:00+", "phone": "+44 20 7600 5500", "toilets": "yes", "toilets:access": "customers", "website": "http://www.jamies.london/bars/the-saint"}}, {"type": "node", "id": 25379242, "lat": 51.5026935, "lon": -0.1110795}, {"type": "node", "id": 25744530, "lat": 51.5571014, "lon": -0.1384439, "tags": {"amenity": "bar", "check_date": "2023-05-25", "food": "no", "name": "The Boston Arms", "payment:cash": "no", "payment:credit_cards": "yes", "payment:debit_cards": "yes", "wheelchair": "no"}}, {"type": "node", "id": 25831302, "lat": 51.5410872, "lon": -0.1466139, "tags": {"addr:city": "London", "addr:housenumber": "78\u201389", "addr:postcode": "NW1 8AF", "addr:street": "Camden Lock Place", "amenity": "bar", "level": "1", "name": "Lockside Lounge", "opening_hours": "Su-We 12:00-22:00; Th-Fr 12:00-23:00; Sa 11:00-00:00", "phone": "02072840007", "website": "https://www.camdenlockside.co.uk/", "wheelchair": "limited"}}, {"type": "node", "id": 25831313, "lat": 51.5412394, "lon": -0.14576, "tags": {"addr:city": "London", "addr:housenumber": "11", "addr:postcode": "NW1 8AB", "addr:street": "Camden Lock Place", "amenity": "bar", "level": "1", "name": "Lock 17", "website": "http://www.lock17-camden.co.uk", "wheelchair": "yes"}}, {"type": "node", "id": 26310696, "lat": 51.536675, "lon": -0.1031148, "tags": {"addr:city": "London", "addr:housenumber": "1", "addr:postcode": "N1 2XH", "addr:street": "Islington Green", "alt_name": "The Slug", "amenity": "bar", "brand": "Slug and Lettuce", "brand:wikidata": "Q7542224", "cocktails": "yes", "fhrs:id": "416888", "food": "yes", "indoor_seating": "yes", "name": "Fox on the Green", "operator": "Stonegate", "operator:wikidata": "Q7619176", "outdoor_seating": "yes", "source:addr": "FHRS Open Data", "website": "https://www.crafted-social.co.uk/fox-on-the-green-islington", "wikidata": "Q17020568"}}, {"type": "node", "id": 26610612, "lat": 51.5411992, "lon": -0.1458705, "tags": {"addr:city": "London", "addr:housenumber": "38", "addr:postcode": "NW1 8AF", "addr:street": "Middle Yard, Camden Lock Place", "amenity": "bar", "level": "0", "name": "Canalside Bar", "wheelchair": "yes"}}, {"type": "node", "id": 26618727, "lat": 51.5371084, "lon": -0.1412334}, {"type": "node", "id": 26699553, "lat": 51.5145576, "lon": -0.1311276}, {"type": "node", "id": 31452360, "lat": 51.4695231, "lon": -0.0698846, "tags": {"addr:city": "London", "addr:housename": "Railway Arch 213", "addr:postcode": "SE15 4QL", "addr:street": "Blenheim Grove", "amenity": "bar", "fhrs:id": "665589", "name": "Bar Story", "wheelchair": "yes"}}, {"type": "node", "id": 32544807, "lat": 51.5503528, "lon": -0.3392639, "tags": {"addr:housenumber": "1286", "addr:street": "Greenford Road", "amenity": "bar", "name": "Ryan's Bar"}}, {"type": "node", "id": 32843796, "lat": 51.5250758, "lon": -0.1349012}, {"type": "node", "id": 32843797, "lat": 51.5249361, "lon": -0.1351414}, {"type": "node", "id": 32921722, "lat": 51.5140621, "lon": -0.1088749, "tags": {"addr:city": "London", "addr:housenumber": "50", "addr:street": "Fleet Street", "amenity": "bar", "name": "Lazy Ballerinas"}}, {"type": "node", "id": 130118290, "lat": 51.525999, "lon": -0.1090656}, {"type": "node", "id": 230058460, "lat": 51.4640796, "lon": -0.1625527, "tags": {"addr:city": "London", "addr:housenumber": "51", "addr:postcode": "SW11 1DJ", "addr:street": "Lavender Gardens", "amenity": "bar", "brewery": "various", "check_date": "2024-03-24", "fhrs:id": "1571453", "name": "Four Thieves", "outdoor_seating": "yes", "payment:american_express": "yes", "payment:cash": "yes", "payment:mastercard": "yes", "payment:visa": "yes", "payment:visa_debit": "yes", "smoking": "outside", "source:addr": "FHRS Open Data", "toilets": "yes", "toilets:access": "yes"}}, {"type": "node", "id": 245097423, "lat": 51.4588562, "lon": 0.0048929, "tags": {"addr:street": "Lee High Road", "amenity": "bar", "name": "Rambles"}}, {"type": "node", "id": 248074287, "lat": 51.5124286, "lon": -0.1040162, "tags": {"addr:city": "London", "addr:housenumber": "30", "addr:postcode": "EC4V 6BJ", "addr:street": "New Bridge Street", "amenity": "bar", "fhrs:id": "294123", "fhrs:local_authority_id": "PI/000009491", "name": "El Vino", "operator": "El Vino Co Ltd", "toilets": "yes", "toilets:access": "customers", "website": "https://elvino.co.uk/bars/blackfriars/"}}, {"type": "node", "id": 253103265, "lat": 51.595893, "lon": -0.0418139}, {"type": "node", "id": 253103266, "lat": 51.5956994, "lon": -0.0417383}, {"type": "node", "id": 253103267, "lat": 51.5957609, "lon": -0.0413301}, {"type": "node", "id": 253103268, "lat": 51.5959545, "lon": -0.0414057}, {"type": "node", "id": 258141472, "lat": 51.5076252, "lon": -0.0227117}, {"type": "node", "id": 258141473, "lat": 51.5076451, "lon": -0.0227056}, {"type": "node", "id": 259247148, "lat": 51.5141806, "lon": -0.1022136}, {"type": "node", "id": 264513354, "lat": 51.5171827, "lon": -0.1255515, "tags": {"amenity": "bar", "name": "The Bowery Bar"}}, {"type": "node", "id": 264796527, "lat": 51.5033816, "lon": -0.0727542, "tags": {"addr:city": "London", "addr:postcode": "SE1 2YG", "addr:street": "Shat Thames", "amenity": "bar", "brand": "All Bar One", "brand:wikidata": "Q4728624", "brand:wikipedia": "en:All Bar One", "cocktails": "yes", "fhrs:id": "364725", "name": "All Bar One Butlers Warf", "toilets": "yes", "toilets:access": "customers"}}, {"type": "node", "id": 266481945, "lat": 51.5108588, "lon": -0.1395168, "tags": {"addr:city": "London", "addr:housenumber": "15", "addr:postcode": "W1B 4BF", "addr:street": "Heddon Street", "amenity": "bar", "fhrs:confidence_management": "5", "fhrs:hygiene": "5", "fhrs:id": "412928", "fhrs:local_authority_id": "00982/0015/0/000", "fhrs:rating": "5", "fhrs:structural": "5", "name": "Tank & Paddle", "source:postcode": "FSA Food Hygiene Ratings Database", "website": "https://www.tankandpaddle.co.uk/heddon-street/"}}, {"type": "node", "id": 266481948, "lat": 51.5113103, "lon": -0.1398884, "tags": {"addr:city": "London", "addr:housenumber": "29-33", "addr:interpolation": "odd", "addr:postcode": "W1B 4BN", "addr:street": "Heddon Street", "amenity": "bar", "name": "Icebar", "opening_hours": "Mo 14:15-22:15; Tu-Th 13:30-23:00; Fr 13:30-00:30; Sa 10:30-01:15; Su 10:00-20:15", "toilets": "yes", "toilets:access": "customers", "website": "https://www.belowzeroicebar.com/"}}, {"type": "node", "id": 267776822, "lat": 51.5770507, "lon": -0.3713872, "tags": {"amenity": "bar", "fhrs:id": "276466", "level": "0", "name": "Club 2000"}}, {"type": "node", "id": 273542301, "lat": 51.4615141, "lon": -0.1115872}, {"type": "node", "id": 283162488, "lat": 51.5167282, "lon": 0.0053574}, {"type": "node", "id": 287442502, "lat": 51.504463, "lon": -0.0897602, "tags": {"amenity": "bar", "name": "The Coach House Bar"}}, {"type": "node", "id": 289009571, "lat": 51.4792589, "lon": -0.1233719, "tags": {"addr:city": "London", "addr:housenumber": "111-115", "addr:postcode": "SW8 1UZ", "addr:street": "South Lambeth Road", "amenity": "bar", "check_date": "2025-01-02", "fhrs:authority": "Lambeth", "fhrs:id": "484442", "fhrs:inspectiondate": "2013-11-21", "fhrs:rating": "5", "name": "Estrela"}}, {"type": "node", "id": 292615238, "lat": 51.4224019, "lon": -0.2085893, "tags": {"addr:city": "London", "addr:housenumber": "37-39", "addr:postcode": "SW19 7NA", "addr:street": "Wimbledon Hill Road", "amenity": "bar", "brand": "All Bar One", "brand:wikidata": "Q4728624", "cocktails": "yes", "fhrs:id": "505245", "name": "All Bar One", "opening_hours": "Mo-Th 09:00-23:00; Fr-Sa 09:00-00:00; Su 09:00-22:30", "toilets": "yes", "toilets:access": "customers", "website": "https://www.allbarone.co.uk/national-search/london/all-bar-one-wimbledon", "wheelchair": "no"}}, {"type": "node", "id": 292615241, "lat": 51.4255562, "lon": -0.2193217, "tags": {"addr:city": "London", "addr:housenumber": "57", "addr:postcode": "SW19 5EE", "addr:street": "High Street", "amenity": "bar", "fhrs:id": "200223", "name": "Hemingways", "opening_hours": "Mo-Fr 17:00-01:00; Sa 13:00-01:00; Su 13:00-23:30", "website": "https://www.hemingwaysbar.co.uk/", "wheelchair": "limited"}}, {"type": "node", "id": 292705418, "lat": 51.5107157, "lon": -0.0860166, "tags": {"addr:city": "London", "addr:country": "GB", "addr:housenumber": "2B", "addr:postcode": "EC3M 1AE", "addr:street": "Eastcheap", "amenity": "bar", "fhrs:id": "950862", "name": "London Cocktail Club", "opening_hours": "Mo-We 16:00-00:00; Th 16:00-01:00; Fr-Sa 16:00-02:00", "phone": "+44 20 7580 1969", "source:postcode": "FHRS listing", "website": "https://www.londoncocktailclub.co.uk/monument/"}}, {"type": "node", "id": 294874302, "lat": 51.5116188, "lon": -0.0899209}, {"type": "node", "id": 295975599, "lat": 51.5148074, "lon": -0.0987777}, {"type": "node", "id": 295975606, "lat": 51.5126466, "lon": -0.079319, "tags": {"addr:city": "London", "addr:housenumber": "107", "addr:postcode": "EC3M 5JF", "addr:street": "Fenchurch Street", "amenity": "bar", "fhrs:id": "293865", "name": "Willy's Wine Bar", "toilets": "yes", "toilets:access": "customers"}}, {"type": "node", "id": 297689790, "lat": 51.4421395, "lon": -0.1494126, "tags": {"addr:city": "London", "addr:housenumber": "76", "addr:postcode": "SW12 9HR", "addr:street": "Bedford Hill", "amenity": "bar", "amenity_1": "restaurant", "name": "The Balham Lounge", "opening_hours": "Tu 17:00-23:00; We,Th 17:00-00:00; Fr 17:00+; Sa 12:00+; Su 12:00-23:00", "outdoor_seating": "no", "website": "www.thebalhamlounge.co.uk/"}}, {"type": "node", "id": 299445828, "lat": 51.5373571, "lon": -0.1007756, "tags": {"alt_name": "Barrio North", "amenity": "bar", "branch": "Angel", "brand": "Barrio", "brand:wikidata": "Q114670989", "check_date": "2024-12-12", "indoor_seating": "yes", "name": "Barrio", "outdoor_seating": "yes"}}, {"type": "node", "id": 299595795, "lat": 51.5373115, "lon": -0.1008285, "tags": {"addr:city": "London", "addr:housenumber": "43", "addr:postcode": "N1 2SF", "addr:street": "Essex Road", "amenity": "bar", "brand": "Simmons Bars", "brand:wikidata": "Q109991573", "check_date": "2024-09-12", "cocktails": "yes", "indoor_seating": "yes", "name": "Simmons Bar", "outdoor_seating": "yes", "phone": "020 3909 5272", "website": "https://www.simmonsbar.co.uk/venues/angel/"}}, {"type": "node", "id": 299615545, "lat": 51.5403472, "lon": -0.1028102, "tags": {"addr:city": "London", "addr:housenumber": "153", "addr:postcode": "N1 1RA", "addr:street": "Upper Street", "addr:suburb": "Islington", "amenity": "bar", "fhrs:id": "416531", "food": "yes", "indoor_seating": "yes", "name": "Hoxley & Porter", "outdoor_seating": "yes", "source:addr": "FHRS Open Data", "survey:date": "2021-12-04", "website": "https://hoxleyandporter.com/"}}, {"type": "node", "id": 300613224, "lat": 51.408426, "lon": -0.0253644, "tags": {"addr:city": "Beckenham", "addr:housenumber": "72-74", "addr:postcode": "BR3 1ED", "addr:street": "High Street", "amenity": "bar", "fhrs:authority": "Beckenham", "fhrs:id": "1069348", "name": "Bocca Social", "source": "survey;https://ratings.food.gov.uk/OpenDataFiles/FHRS505en-GB.xml", "toilets": "yes", "toilets:access": "customers"}}, {"type": "node", "id": 302397766, "lat": 51.4952634, "lon": -0.1660877, "tags": {"addr:housenumber": "35", "addr:street": "Walton Street", "amenity": "bar", "name": "The Enterprise", "phone": "+44 20 7584 3148", "toilets": "yes", "toilets:access": "customers", "website": "https://www.theenterprise.co.uk/"}}, {"type": "node", "id": 304687769, "lat": 51.5431182, "lon": -0.2851586, "tags": {"amenity": "bar", "name": "Lush"}}, {"type": "node", "id": 304693169, "lat": 51.541967, "lon": -0.2975525, "tags": {"addr:city": "Wembley", "addr:country": "GB", "addr:housenumber": "3-4", "addr:street": "Glenmore Parade", "amenity": "bar", "name": "Panthers"}}, {"type": "node", "id": 311974960, "lat": 51.519968, "lon": -0.0831839, "tags": {"addr:city": "London", "addr:housenumber": "18-20", "addr:postcode": "EC2A 2AS", "addr:street": "Appold Street", "amenity": "bar", "cocktails": "yes", "name": "The 1 Bar", "toilets": "yes", "toilets:access": "customers", "wheelchair": "yes"}}, {"type": "node", "id": 316763495, "lat": 51.5145419, "lon": -0.0948116, "tags": {"addr:city": "London", "addr:housename": "Three Keys House", "addr:housenumber": "130", "addr:postcode": "EC2V 6DL", "addr:street": "Wood Street", "amenity": "bar", "fhrs:id": "720402", "name": "Dirty Martini St. Pauls", "toilets": "yes", "toilets:access": "customers"}}, {"type": "node", "id": 316763576, "lat": 51.5153585, "lon": -0.0956641, "tags": {"amenity": "bar", "name": "Balls Brothers", "toilets": "yes", "toilets:access": "customers"}}, {"type": "node", "id": 323796747, "lat": 51.5258622, "lon": -0.0835236, "tags": {"addr:city": "London", "addr:housenumber": "91-93", "addr:postcode": "EC2A 3HZ", "addr:street": "Great Eastern Street", "amenity": "bar", "name": "Floripa", "wheelchair": "limited"}}, {"type": "node", "id": 334369944, "lat": 51.5265686, "lon": -0.0841886, "tags": {"addr:city": "London", "addr:housenumber": "243", "addr:postcode": "EC1V 9EY", "addr:street": "Old Street", "amenity": "bar", "fhrs:id": "469968", "name": "Roadtrip & The Workshop", "shop": "deli", "toilets": "yes", "toilets:access": "customers"}}, {"type": "node", "id": 338505255, "lat": 51.5182305, "lon": -0.1153431, "tags": {"amenity": "bar", "name": "Davy's Wine House", "note": "posh wine bar", "wheelchair": "limited"}}, {"type": "node", "id": 343091829, "lat": 51.5480817, "lon": -0.1100033}, {"type": "node", "id": 343190863, "lat": 51.4955469, "lon": 0.0184853}, {"type": "node", "id": 343190865, "lat": 51.4954187, "lon": 0.0188684}, {"type": "node", "id": 343190867, "lat": 51.4953458, "lon": 0.0188032}, {"type": "node", "id": 343538002, "lat": 51.5868018, "lon": -0.0961273, "tags": {"addr:city": "London", "addr:housenumber": "422", "addr:postcode": "N15 3PU", "addr:street": "West Green Road", "amenity": "bar", "fhrs:id": "834251", "name": "Esplanade Club", "website": "https://esplanadeclub.london/"}}, {"type": "node", "id": 344652892, "lat": 51.507901, "lon": -0.131531, "tags": {"addr:city": "London", "addr:housenumber": "80", "addr:street": "Haymarket", "amenity": "bar", "fhrs:confidence_management": "5", "fhrs:hygiene": "0", "fhrs:id": "410895", "fhrs:local_authority_id": "00095/0080/1/023", "fhrs:rating": "5", "fhrs:structural": "5", "name": "Riley's", "postal_code": "SW1Y 4TE", "source:addr": "FSA Food Hygiene Ratings Database", "source:postcode": "FSA Food Hygiene Ratings Database", "wheelchair": "yes"}}, {"type": "node", "id": 345769758, "lat": 51.5429958, "lon": -0.1154888}, {"type": "node", "id": 345769766, "lat": 51.5429163, "lon": -0.115435}, {"type": "node", "id": 345884989, "lat": 51.5117369, "lon": -0.129769}, {"type": "node", "id": 345885431, "lat": 51.5124709, "lon": -0.1332066}, {"type": "node", "id": 345886748, "lat": 51.5078488, "lon": -0.1241116, "tags": {"addr:city": "London", "addr:housenumber": "17", "addr:postcode": "WC2N 6NG", "addr:street": "The Arches", "amenity": "bar", "fhrs:id": "428163", "fhrs:local_authority_id": "01650/0017/0/000", "fhrs:rating": "4", "indoor_seating": "yes", "layer": "-1", "name": "Champagne Charlies", "operator": "Davy's", "outdoor_seating": "no", "real_ale": "yes", "source:addr": "FSA Food Hygiene Ratings Database", "source:postcode": "FSA Food Hygiene Ratings Database"}}, {"type": "node", "id": 348357935, "lat": 51.5381265, "lon": -0.1026881, "tags": {"addr:city": "London", "addr:floor": "Basement And Ground Floors", "addr:housenumber": "112", "addr:postcode": "N1 1QN", "addr:street": "Upper Street", "addr:suburb": "Islington", "amenity": "bar", "fhrs:id": "745682", "name": "Slim Jim's Liquor Store", "source:addr": "FHRS Open Data"}}, {"type": "node", "id": 348426433, "lat": 51.5338394, "lon": -0.1057791, "tags": {"addr:city": "London", "addr:housenumber": "12", "addr:postcode": "N1 0PQ", "addr:street": "Upper Street", "addr:suburb": "Islington", "amenity": "bar", "brand": "Be At One", "brand:wikidata": "Q110016786", "check_date": "2024-12-12", "cocktails": "yes", "fhrs:id": "416918", "name": "Be At One", "old_name": "The Nags Head", "operator": "Stonegate", "operator:wikidata": "Q7619176", "source:addr": "FHRS Open Data", "toilets": "yes", "toilets:access": "customers", "website": "https://www.beatone.co.uk/islington"}}, {"type": "node", "id": 348605949, "lat": 51.5362975, "lon": -0.103733, "tags": {"addr:city": "London", "addr:floor": "Basement And Ground Floor Right", "addr:housenumber": "74", "addr:postcode": "N1 0NY", "addr:street": "Upper Street", "addr:suburb": "Islington", "amenity": "bar", "fhrs:id": "816988", "indoor_seating": "yes", "min_age": "25", "name": "Dirty martini", "outdoor_seating": "no", "source:addr": "FHRS Open Data"}}, {"type": "node", "id": 348605966, "lat": 51.5360577, "lon": -0.1038735, "tags": {"amenity": "bar", "name": "Ladybird"}}, {"type": "node", "id": 348812894, "lat": 51.5109241, "lon": -0.1289596, "tags": {"wheelchair": "no"}}, {"type": "node", "id": 348874860, "lat": 51.5121343, "lon": -0.1334375, "tags": {"addr:city": "London", "addr:housenumber": "50", "addr:postcode": "W1D 6DR", "addr:street": "Rupert Street", "amenity": "bar", "contact:facebook": "https://www.facebook.com/RupertStreetBar/", "contact:instagram": "https://www.instagram.com/rupert_street_bar/", "contact:twitter": "https://twitter.com/RupertStreetBar", "fhrs:confidence_management": "0", "fhrs:hygiene": "5", "fhrs:id": "414115", "fhrs:local_authority_id": "01532/0050/0/000", "fhrs:rating": "5", "fhrs:structural": "0", "food": "yes", "lgbtq": "primary", "name": "Rupert Street", "opening_hours": "Mo-Th 12:00-23:00; Fr,Sa 12:00-23:45; Su 12:00-22:30", "operator": "Stonegate", "operator:wikidata": "Q7619176", "outdoor_seating": "yes", "phone": "+44 20 7494 3059", "source:addr": "FSA Food Hygiene Ratings Database", "website": "https://www.rupert-street.com/london", "wheelchair": "yes", "wikimedia_commons": "File:Rupert_Street_bar.jpg"}}, {"type": "node", "id": 348875260, "lat": 51.512006, "lon": -0.133848, "tags": {"addr:city": "London", "addr:housenumber": "57", "addr:street": "Rupert Street", "amenity": "bar", "beer_garden": "yes", "contact:facebook": "https://www.facebook.com/yardbarsoho/", "contact:twitter": "https://twitter.com/theyardsoho", "email": "info@yardbar.co.uk", "fhrs:confidence_management": "20", "fhrs:hygiene": "5", "fhrs:id": "414117", "fhrs:local_authority_id": "01532/0057/0/000", "fhrs:rating": "1", "fhrs:structural": "5", "lgbtq": "primary", "name": "The Yard", "opening_hours": "Mo,Tu 14:00-23:30; We,Th 12:00-23:30; Fr,Sa 12:00-00:00; Su 12:00-22:30", "outdoor_seating": "yes", "payment:american_express": "no", "phone": "+44 20 7437 2652", "postal_code": "W1D 7PJ", "source:postcode": "FSA Food Hygiene Ratings Database", "website": "https://www.yardbar.co.uk/"}}, {"type": "node", "id": 353864628, "lat": 51.5481421, "lon": -0.1100227}, {"type": "node", "id": 353864631, "lat": 51.5481047, "lon": -0.1101475}, {"type": "node", "id": 353864726, "lat": 51.5480446, "lon": -0.1101013}, {"type": "node", "id": 353864728, "lat": 51.5481043, "lon": -0.1099934}, {"type": "node", "id": 353864834, "lat": 51.5480627, "lon": -0.1101143}, {"type": "node", "id": 355416859, "lat": 51.5139316, "lon": -0.102532}, {"type": "node", "id": 355416909, "lat": 51.5185662, "lon": -0.1002516, "tags": {"addr:city": "London", "addr:housenumber": "57", "addr:postcode": "EC1A 9DS", "addr:street": "West Smithfield", "alt_name": "Club Gascon", "amenity": "bar", "fhrs:id": "294273", "name": "Cellar Gascon", "wheelchair": "no", "wikidata": "Q5136253"}}, {"type": "node", "id": 362751670, "lat": 51.5400025, "lon": -0.0207992}, {"type": "node", "id": 362756095, "lat": 51.5402179, "lon": -0.0207646}, {"type": "node", "id": 364655204, "lat": 51.481808, "lon": -0.196587, "tags": {"addr:city": "London", "addr:country": "GB", "addr:housenumber": "18", "addr:postcode": "SW6 1PP", "addr:street": "Farm Lane", "amenity": "bar", "fhrs:id": "1301308", "name": "Sixes Cricket Club", "old_name": "The Lazy Fox", "opening_hours": "We 16:00-23:00; Th 12:00-23:00; Fr 12:00-24:00; Sa 10:00-24:00; Su 10:00-22:00", "website": "https://www.sixescricket.com"}}, {"type": "node", "id": 364783974, "lat": 51.5460358, "lon": -0.1013511, "tags": {"addr:city": "London", "addr:housenumber": "97", "addr:postcode": "N1 2NA", "addr:street": "St. Paul's Road", "amenity": "bar", "check_date": "2024-12-12", "contact:website": "https://www.yieldn1.com/", "fhrs:id": "1344282", "indoor_seating": "yes", "name": "Yield N1", "outdoor_seating": "yes", "shop": "wine"}}, {"type": "node", "id": 368360496, "lat": 51.4195805, "lon": -0.079327}, {"type": "node", "id": 369119286, "lat": 51.5147902, "lon": -0.0809501, "tags": {"addr:city": "London", "addr:housenumber": "29", "addr:postcode": "EC3A 8AA", "addr:street": "Saint Mary Axe", "amenity": "bar", "brand": "Slug and Lettuce", "brand:wikidata": "Q7542224", "check_date": "2024-08-28", "cocktails": "yes", "fhrs:id": "295263", "food": "yes", "name": "Slug and Lettuce", "operator": "Stonegate", "operator:wikidata": "Q7619176", "source": "Local knowledge", "toilets": "yes", "toilets:access": "customers", "website": "https://www.slugandlettuce.co.uk/st-mary-axe", "wheelchair": "yes"}}, {"type": "node", "id": 369829177, "lat": 51.543172, "lon": -0.1176255, "tags": {"amenity": "bar", "name": "Ideo's"}}, {"type": "node", "id": 369879097, "lat": 51.5619117, "lon": -0.0734779, "tags": {"addr:city": "London", "addr:housenumber": "184", "addr:postcode": "N16 7JD", "addr:street": "Stoke Newington High Street", "amenity": "bar", "name": "Wind Rush"}}, {"type": "node", "id": 371050910, "lat": 51.515471, "lon": -0.126639, "tags": {"addr:housenumber": "198", "addr:street": "Shaftesbury Avenue", "amenity": "bar", "check_date": "2022-11-26", "cocktails": "yes", "indoor_seating": "yes", "internet_access": "wlan", "name": "Freud", "opening_hours": "Mo-We 16:00-24:00; Th-Fr 16:00-02:00; Sa 15:00-02:00; Su 16:00-23:00", "outdoor_seating": "no", "payment:credit_cards": "yes", "payment:debit_cards": "yes", "website": "https://www.freud.eu/", "wheelchair": "no"}}, {"type": "node", "id": 371063206, "lat": 51.5362798, "lon": -0.1017454, "tags": {"addr:housenumber": "2", "addr:street": "Essex road", "amenity": "bar", "check_date": "2024-09-12", "indoor_seating": "yes", "name": "The Brougham", "outdoor_seating": "yes"}}, {"type": "node", "id": 371521502, "lat": 51.5222027, "lon": -0.08104}, {"type": "node", "id": 371601279, "lat": 51.5268568, "lon": -0.0781882, "tags": {"addr:city": "London", "addr:country": "GB", "addr:housenumber": "127", "addr:postcode": "E1 6JE", "addr:street": "Shoreditch High Street", "amenity": "bar", "fhrs:id": "469747", "name": "Bar Kick", "wheelchair": "no"}}, {"type": "node", "id": 372519530, "lat": 51.5134461, "lon": -0.1315987, "tags": {"amenity": "bar", "live_music": "yes", "music_genre": "jazz", "name": "Upstairs @ Ronnie\u2019s", "source": "Company website", "toilets:wheelchair": "no", "website": "https://www.ronniescotts.co.uk/upstairsronnies", "wheelchair": "no"}}, {"type": "node", "id": 377500818, "lat": 51.5149918, "lon": -0.0803276, "tags": {"addr:city": "London", "addr:housename": "The Baltic Exchange", "addr:housenumber": "38", "addr:postcode": "EC3A 8EX", "addr:street": "Saint Mary Axe", "amenity": "bar", "fhrs:id": "294715", "name": "Balls Brothers"}}, {"type": "node", "id": 379822491, "lat": 51.4736108, "lon": -0.1331057, "tags": {"addr:housenumber": "415", "addr:street": "Wandsworth Road", "amenity": "bar", "name": "Aquarium Snack Bar"}}, {"type": "node", "id": 381582794, "lat": 51.4111271, "lon": -0.0251308, "tags": {"addr:city": "Beckenham", "addr:housename": "Station Buildings", "addr:postcode": "BR3 1SD", "addr:street": "Southend Road", "addr:unit": "1-4", "amenity": "bar", "name": "Ozoku", "source:addr": "FHRS Open Data", "website": "https://ozoku.co.uk/the-menu/"}}, {"type": "node", "id": 382512980, "lat": 51.5154983, "lon": -0.1344574, "tags": {"addr:city": "London", "addr:housenumber": "22", "addr:postcode": "W1F 8FR", "addr:street": "Great Chapel Street", "amenity": "bar", "check_date": "2024-08-13", "email": "ginclub@mr-foggs.com", "fhrs:id": "1226857", "indoor_seating": "yes", "level": "-1", "name": "Mr Fogg's Gin Club", "opening_hours": "Mo off; Tu 18:01-23:01; We-Sa 18:01-00:01; Su off", "outdoor_seating": "no", "phone": "+44 20 7223 5200", "source:addr": "FHRS Open Data", "website": "https://www.mr-foggs.com/gin-club/", "wheelchair": "no"}}, {"type": "node", "id": 385597414, "lat": 51.5276711, "lon": -0.0800098, "tags": {"addr:city": "London", "addr:housenumber": "10", "addr:postcode": "N1 6NG", "addr:street": "Hoxton Street", "amenity": "bar", "fhrs:id": "469565", "name": "Troy Bar"}}, {"type": "node", "id": 387123683, "lat": 51.5092674, "lon": -0.1944519, "tags": {"addr:housenumber": "19", "addr:street": "Notting Hill Gate", "amenity": "bar", "name": "Tequila Tex-Mex"}}, {"type": "node", "id": 388116718, "lat": 51.5167167, "lon": -0.1289335, "tags": {"amenity": "bar", "brand": "All Bar One", "brand:wikidata": "Q4728624", "check_date": "2024-09-10", "cocktails": "yes", "indoor_seating": "yes", "name": "All Bar One", "outdoor_seating": "yes"}}, {"type": "node", "id": 390925205, "lat": 51.5396753, "lon": -0.1424368}, {"type": "node", "id": 393464353, "lat": 51.5686313, "lon": -0.1110363, "tags": {"addr:city": "London", "addr:floor": "Ground Floor", "addr:housenumber": "89", "addr:postcode": "N4 3PX", "addr:street": "Stroud Green Road", "addr:suburb": "Islington", "amenity": "bar", "fhrs:id": "1175336", "fhrs:local_authority_id": "PI/000284464", "level": "0", "name": "89 Social", "old_name": "My Gufo", "outdoor_seating": "yes", "source:addr:postcode": "FHRS Open Data", "website": "http://89social.co.uk/"}}, {"type": "node", "id": 401529129, "lat": 51.5126683, "lon": -0.1285727, "tags": {"addr:city": "London", "addr:housenumber": "76-78", "addr:postcode": "WC2H 0BN", "addr:street": "Charing Cross Road", "amenity": "bar", "contact:website": "https://www.baaria.co.uk/", "indoor_seating": "yes", "name": "Baaria", "opening_hours": "08:00-22:30", "outdoor_seating": "yes"}}, {"type": "node", "id": 401529165, "lat": 51.5154731, "lon": -0.1291623}, {"type": "node", "id": 408124683, "lat": 51.535697, "lon": -0.1904489, "tags": {"addr:city": "London", "addr:postcode": "NW6 5RP", "addr:street": "Plaza Parade", "amenity": "bar", "contact:phone": "+44 20 7543 6000", "name": "The Studio"}}, {"type": "node", "id": 420752303, "lat": 51.4062956, "lon": 0.0134144, "tags": {"addr:city": "Bromley", "addr:housenumber": "201/203", "addr:postcode": "BR1 1NY", "addr:street": "High Street", "amenity": "bar", "fhrs:id": "987585", "name": "Bar 201", "postal_code": "BR1 1NY", "source:addr": "FHRS Open Data"}}, {"type": "node", "id": 425177250, "lat": 51.5332241, "lon": -0.1222, "tags": {"addr:city": "London", "addr:housenumber": "52", "addr:postcode": "N1 9AB", "addr:street": "York Way", "addr:suburb": "Islington", "amenity": "bar", "name": "The Lincoln Arms", "source:addr": "FHRS Open Data"}}, {"type": "node", "id": 425451848, "lat": 51.5313188, "lon": -0.1167116, "tags": {"addr:city": "London", "addr:floor": "Basement And Ground Floor", "addr:housenumber": "184-186", "addr:postcode": "N1 9JP", "addr:street": "Pentonville Road", "addr:suburb": "Islington", "amenity": "bar", "contact:twitter": "https://twitter.com/meathouselondon/", "cuisine": "steak_house", "fhrs:id": "865567", "name": "Meat House London", "phone": "+44 20 7837 3300", "source:addr": "FHRS Open Data", "website": "https://www.meathouselondon.co.uk/"}}, {"type": "node", "id": 425720634, "lat": 51.5352086, "lon": -0.1213509, "tags": {"addr:city": "London", "addr:postcode": "N1 9AG", "addr:street": "York Way", "amenity": "bar", "check_date": "2025-03-07", "name": "Rotunda"}}, {"type": "node", "id": 427571029, "lat": 51.5320955, "lon": -0.1206795}, {"type": "node", "id": 429249941, "lat": 51.5060321, "lon": -0.0212959, "tags": {"addr:city": "London", "addr:housenumber": "31-35", "addr:postcode": "E14 4DH", "addr:street": "Fisherman's Walk", "amenity": "bar", "fhrs:id": "1553453", "level": "0", "level:ref": "-1", "name": "Fairgame", "outdoor_seating": "yes", "wheelchair": "yes"}}, {"type": "node", "id": 429252805, "lat": 51.5048822, "lon": -0.0233302, "tags": {"addr:city": "London", "addr:housenumber": "25", "addr:postcode": "E14 4QA", "addr:street": "Cabot Square", "addr:unit": "Unit 3", "amenity": "bar", "brand": "Vagabond", "brand:wikidata": "Q115139492", "fhrs:id": "1174110", "name": "Vagabond", "not:addr:postcode": "E14 4AP"}}, {"type": "node", "id": 429346224, "lat": 51.5158403, "lon": -0.0792759, "tags": {"addr:city": "London", "addr:housenumber": "107", "addr:postcode": "EC3A 7BD", "addr:street": "Houndsditch", "addr:unit": "Retail Unit", "amenity": "bar", "brand": "All Bar One", "brand:wikidata": "Q4728624", "cocktails": "yes", "fhrs:id": "293988", "name": "All Bar One", "toilets:wheelchair": "yes", "wheelchair": "yes"}}, {"type": "node", "id": 441210297, "lat": 51.460586, "lon": -0.1670868, "tags": {"addr:city": "London", "addr:housenumber": "4", "addr:postcode": "SW11 1NT", "addr:street": "Northcote Road", "amenity": "bar", "brand": "Vagabond", "brand:wikidata": "Q115139492", "fhrs:id": "1639117", "name": "Vagabond Wines", "source:addr": "FHRS Open Data", "website": "https://vagabondwines.co.uk/clapham/"}}, {"type": "node", "id": 443877304, "lat": 51.4811167, "lon": -0.0308115}, {"type": "node", "id": 447871114, "lat": 51.5179303, "lon": -0.1253825}, {"type": "node", "id": 447874478, "lat": 51.5141088, "lon": -0.1312706}, {"type": "node", "id": 452236137, "lat": 51.5126021, "lon": -0.1454298, "tags": {"amenity": "bar", "name": "Mews"}}, {"type": "node", "id": 452396930, "lat": 51.5141825, "lon": -0.1622282}, {"type": "node", "id": 456245566, "lat": 51.5115358, "lon": -0.1425515, "tags": {"addr:city": "London", "addr:housenumber": "39", "addr:postcode": "W1S 2YG", "addr:street": "Conduit Street", "amenity": "bar", "name": "Polo Bar"}}, {"type": "node", "id": 456408660, "lat": 51.4108161, "lon": -0.0251387, "tags": {"addr:city": "Beckenham", "addr:housenumber": "2 - 4", "addr:postcode": "BR3 1AZ", "addr:street": "High Street", "amenity": "bar", "fhrs:id": "357227", "name": "Bridge Bar", "source:addr": "FHRS Open Data"}}, {"type": "node", "id": 469446860, "lat": 51.5210378, "lon": 0.0195213, "tags": {"addr:city": "London", "addr:housenumber": "299", "addr:postcode": "E13 8EQ", "addr:street": "Barking Road", "addr:suburb": "Plaistow", "amenity": "bar", "fhrs:id": "849321", "fhrs:local_authority_id": "61130/0299/0/000", "name": "The Red House"}}, {"type": "node", "id": 469765399, "lat": 51.5697299, "lon": -0.295177, "tags": {"addr:city": "Wembley", "addr:housename": "The Preston", "addr:housenumber": "1", "addr:postcode": "HA9", "addr:street": "Carlton Avenue East", "amenity": "bar", "brewery": "various", "min_age": "0", "name": "The Preston", "naptan:AtcoCode": "490004796W1", "naptan:Bearing": "NW", "naptan:CommonName": "Carlton Avenue East Preston Rd", "naptan:Indicator": "Stop", "naptan:verified": "no", "opening_hours": "Mo-Su 10:00-22:00", "physically_present": "no", "shelter": "no", "source": "naptan_import;survey;Bing 2012", "survey:date": "2013-08-22"}}, {"type": "node", "id": 470247703, "lat": 51.519894, "lon": -0.0800515, "tags": {"amenity": "bar", "name": "The Salt Point Bar"}}, {"type": "node", "id": 470345638, "lat": 51.5045694, "lon": -0.022824, "tags": {"addr:city": "London", "addr:housenumber": "18-20", "addr:postcode": "E14 4PH", "addr:street": "Mackenzie Walk", "amenity": "bar", "fhrs:id": "1176540", "fhrs:local_authority_id": "201038", "name": "Humble Grape", "old_name": "Le Relais de Venise", "outdoor_seating": "yes", "was:amenity": "restaurant"}}, {"type": "node", "id": 470349600, "lat": 51.5040205, "lon": -0.0194622, "tags": {"addr:city": "London", "addr:housename": "Nash Court", "addr:postcode": "E14 5AJ", "addr:street": "Reuters Plaza", "addr:unit": "Unit 1", "amenity": "bar", "bar": "yes", "branch": "Canary Wharf", "check_date": "2024-09-01", "contact:facebook": "https://www.facebook.com/TheAlchemistUK/", "contact:instagram": "https://www.instagram.com/thealchemistuk/", "contact:twitter": "https://www.twitter.com/thealchemistuk/", "fhrs:id": "1215480", "indoor_seating": "yes", "internet_access": "wlan", "level": "1", "name": "The Alchemist", "outdoor_seating": "yes", "website": "https://thealchemist.uk.com/", "wheelchair": "limited"}}, {"type": "node", "id": 471488497, "lat": 51.5128153, "lon": -0.080977, "tags": {"addr:city": "London", "addr:housenumber": "25", "addr:postcode": "EC3M 5AD", "addr:street": "Fenchurch Avenue", "amenity": "bar", "fhrs:id": "295082", "name": "The Moniker"}}, {"type": "node", "id": 472493110, "lat": 51.5668762, "lon": -0.0726457, "tags": {"addr:city": "London", "addr:housenumber": "72", "addr:postcode": "N16 6XS", "addr:street": "Stamford Hill", "amenity": "bar", "name": "Mascara Bar"}}, {"type": "node", "id": 475868738, "lat": 51.5171622, "lon": -0.1047894, "tags": {"addr:city": "London", "addr:housenumber": "41A", "addr:postcode": "EC4A 4AN", "addr:street": "Farringdon Street", "addr:unit": "Retail Unit", "amenity": "bar", "fhrs:id": "782770", "image": "https://archive.org/details/city-of-london-2019-05-06/DSCN0168.JPG", "layer": "-1", "name": "Winemakers Club", "note": "Under Holborn Viaduct", "opening_hours": "Tu-Fr 11:00-23:00, Mo 11:00-17:00", "shop": "alcohol", "website": "http://thewinemakersclub.co.uk/"}}, {"type": "node", "id": 489301872, "lat": 51.5235602, "lon": -0.1354546}, {"type": "node", "id": 490256491, "lat": 51.5126871, "lon": -0.1263254}, {"type": "node", "id": 490699731, "lat": 51.3587878, "lon": -0.2168247, "tags": {"amenity": "bar", "name": "Claret's Wine Bar"}}, {"type": "node", "id": 496704390, "lat": 51.5164391, "lon": -0.140536}, {"type": "node", "id": 496704393, "lat": 51.5163456, "lon": -0.1404946}, {"type": "node", "id": 497147301, "lat": 51.523514, "lon": -0.1357463}, {"type": "node", "id": 497149330, "lat": 51.5178561, "lon": -0.135695, "tags": {"addr:city": "London", "addr:housenumber": "25", "addr:postcode": "W1T 1PN", "addr:street": "Newman Street", "amenity": "bar", "fhrs:id": "413918", "name": "Nordic Bar", "opening_hours": "Mo-We 17:00-00:00; Th-Fr 12:00-02:00; Sa 17:00-02:00; Su off", "phone": "+44 20 7631 3174", "postal_code": "W1T 1PN", "source:addr": "FHRS Open Data", "website": "https://www.nordicbar.com/"}}, {"type": "node", "id": 503882231, "lat": 51.5389804, "lon": -0.0982697, "tags": {"addr:housenumber": "108", "addr:street": "Essex Road", "amenity": "bar", "check_date": "2024-09-12", "indoor_seating": "yes", "name": "Homeboy Bar", "outdoor_seating": "yes"}}, {"type": "node", "id": 517680786, "lat": 51.5143126, "lon": -0.1620642}, {"type": "node", "id": 534961998, "lat": 51.5041995, "lon": -0.0935508, "tags": {"addr:city": "London", "addr:housenumber": "10-20", "addr:postcode": "SE1 1TA", "addr:street": "Redcross Way", "amenity": "bar", "fhrs:id": "364600", "name": "The Boot And Flogger Wine Bar", "opening_hours": "Tu-Sa 11:00-21:30; Su 12:00-19:00", "source:addr": "FHRS Open Data", "wheelchair": "no"}}, {"type": "node", "id": 534993842, "lat": 51.5153397, "lon": -0.1224929, "tags": {"amenity": "bar", "name": "Guanabara"}}, {"type": "node", "id": 537769564, "lat": 51.5192005, "lon": -0.103537}, {"type": "node", "id": 537769568, "lat": 51.5193984, "lon": -0.1035765}, {"type": "node", "id": 537769572, "lat": 51.5193487, "lon": -0.1034579}, {"type": "node", "id": 541788336, "lat": 51.4969245, "lon": -0.0943454, "tags": {"addr:housenumber": "16", "addr:street": "Harper Road", "amenity": "bar", "indoor_seating": "yes", "name": "The Colab Tavern", "outdoor_seating": "yes"}}, {"type": "node", "id": 546305120, "lat": 51.542991, "lon": -0.1037691, "tags": {"addr:city": "London", "addr:floor": "0", "addr:housenumber": "54", "addr:postcode": "N1 1PX", "addr:street": "Islington Park Street", "addr:suburb": "Islington", "amenity": "bar", "fhrs:id": "912363", "name": "Little Bat", "opening_hours": "Tu-We 17:00-23:00, Th 17:00-04:00, Fr-Sa 17:00-01:00", "outdoor_seating": "no", "smoking": "no", "source:addr": "FHRS Open Data"}}, {"type": "node", "id": 548866030, "lat": 51.5709117, "lon": -0.2946193, "tags": {"addr:city": "Wembley", "addr:country": "GB", "addr:housename": "Baron", "addr:housenumber": "210", "addr:postcode": "HA9 8PB", "addr:street": "Preston Road", "amenity": "bar", "brewery": "various", "name": "Baron", "opening_hours": "Mo-Su 10:00-22:00", "phone": "+44 20 8385 2002", "source": "survey;Bing 2012", "source:addr:postcode": "FHRS Open Data", "survey:date": "2014-12-23", "toilets": "yes", "toilets:wheelchair": "yes", "wheelchair": "limited"}}, {"type": "node", "id": 551435125, "lat": 51.4985675, "lon": -0.3031925, "tags": {"amenity": "bar", "check_date": "2024-07-27", "name": "West 5"}}, {"type": "node", "id": 560978426, "lat": 51.524314, "lon": -0.1030204}, {"type": "node", "id": 560978430, "lat": 51.5242206, "lon": -0.1029499}, {"type": "node", "id": 564727554, "lat": 51.4658914, "lon": -0.1881931}, {"type": "node", "id": 565470122, "lat": 51.5133508, "lon": -0.1309301}, {"type": "node", "id": 565573093, "lat": 51.5188695, "lon": -0.1367314}, {"type": "node", "id": 566152754, "lat": 51.5003836, "lon": -0.1138068, "tags": {"addr:city": "London", "addr:housenumber": "133A", "addr:postcode": "SE1 7AE", "addr:street": "Lower Marsh", "alt_name:en": "Scooter Caffe", "amenity": "bar", "contact:facebook": "https://www.facebook.com/scootercaffe/", "contact:phone": "+44 20 7620 1421", "contact:website": "https://scootercaffe.com/", "fhrs:id": "484304", "internet_access": "wlan", "internet_access:fee": "customers", "name": "Scooter Caff\u00e9", "name:en": "Scooter Caffe", "opening_hours:covid19": "closed", "outdoor_seating": "yes", "source:addr": "FHRS Open Data"}}, {"type": "node", "id": 566357928, "lat": 51.512359, "lon": -0.133217, "tags": {"addr:housenumber": "79", "addr:street": "Wardour Street", "amenity": "bar", "contact:facebook": "https://www.facebook.com/pages/The-Friendly-Society/136813716365787", "lgbtq": "primary", "name": "The Friendly Society", "outdoor_seating": "no", "payment:american_express": "yes", "smoking": "no", "wheelchair": "no"}}, {"type": "node", "id": 567928625, "lat": 51.5121674, "lon": -0.1217998}, {"type": "node", "id": 569524165, "lat": 51.5026748, "lon": -0.1171122, "tags": {"addr:city": "London", "addr:housenumber": "1", "addr:postcode": "SE1 7PY", "addr:street": "Chicheley Street", "amenity": "bar", "brand": "All Bar One", "brand:wikidata": "Q4728624", "cocktails": "yes", "fhrs:id": "484046", "name": "All Bar One", "source:addr": "FHRS Open Data", "toilets:wheelchair": "yes", "website": "https://www.allbarone.co.uk/", "wheelchair": "yes"}}, {"type": "node", "id": 577559476, "lat": 51.5189272, "lon": -0.078206, "tags": {"wheelchair": "limited"}}, {"type": "node", "id": 581005276, "lat": 51.5249995, "lon": -0.1103595}, {"type": "node", "id": 587741450, "lat": 51.5041555, "lon": -0.105828, "tags": {"amenity": "bar", "name": "Jack's", "postal_code": "SE1 8DD", "website": "http://www.jackslounge.co.uk"}}, {"type": "node", "id": 587754668, "lat": 51.5011457, "lon": -0.1119145}, {"type": "node", "id": 587768035, "lat": 51.5012906, "lon": -0.1158882, "tags": {"addr:city": "London", "amenity": "bar", "indoor_seating": "yes", "name": "Spectrum", "outdoor_seating": "yes"}}, {"type": "node", "id": 588512651, "lat": 51.5020571, "lon": -0.1095279, "tags": {"addr:city": "London", "addr:housename": "The Old Vic Theatre", "addr:housenumber": "103", "addr:postcode": "SE1 8NB", "addr:street": "The Cut", "alt_name": "The Old Vic Pit Bar And Restaurant", "amenity": "bar", "fhrs:authority": "Lambeth", "fhrs:id": "483402", "fhrs:inspectiondate": "2010-03-03", "fhrs:rating": "4", "name": "Pit Bar"}}, {"type": "node", "id": 592036684, "lat": 51.5050152, "lon": -0.0953563, "tags": {"addr:city": "London", "addr:housenumber": "60", "addr:postcode": "SE1 1UN", "addr:street": "Southwark Street", "amenity": "bar", "check_date": "2024-07-23", "contact:website": "http://mirafloreslondon.co.uk/", "fhrs:id": "1180856", "indoor_seating": "yes", "name": "Miraflores Bar & Lounge", "outdoor_seating": "yes", "source:addr": "FHRS Open Data"}}, {"type": "node", "id": 592642006, "lat": 51.510472, "lon": -0.0870841, "tags": {"addr:city": "London", "addr:housenumber": "28", "addr:postcode": "EC4R 9AT", "addr:street": "King William Street", "amenity": "bar", "brand": "Be At One", "brand:wikidata": "Q110016786", "fhrs:id": "295104", "indoor_seating": "yes", "name": "Be At One Monument", "operator": "Stonegate", "operator:wikidata": "Q7619176", "outdoor_seating": "no", "website": "https://www.beatone.co.uk/monument"}}, {"type": "node", "id": 603120730, "lat": 51.515332, "lon": -0.126555, "tags": {"amenity": "bar", "name": "Freud", "opening_hours": "Su-We 16:00-00:00; Th 16:00-01:00; Fr-Sa 16:00-03:00", "website": "http://freud.eu/"}}, {"type": "node", "id": 608592574, "lat": 51.5674858, "lon": 0.0108598}, {"type": "node", "id": 620075853, "lat": 51.5430207, "lon": -0.1482389}, {"type": "node", "id": 635756147, "lat": 51.5250152, "lon": -0.1348982}, {"type": "node", "id": 639114112, "lat": 51.513184, "lon": -0.13095, "tags": {"addr:city": "London", "addr:housenumber": "23-25", "addr:postcode": "W1D 5JL", "amenity": "bar", "fhrs:confidence_management": "5", "fhrs:hygiene": "5", "fhrs:id": "412519", "fhrs:local_authority_id": "00859/0023/0/000", "fhrs:rating": "5", "fhrs:structural": "5", "name": "Bar Soho", "operator": "Stonegate", "operator:wikidata": "Q7619176", "outdoor_seating": "no", "source:addr": "FSA Food Hygiene Ratings Database", "source:postcode": "FSA Food Hygiene Ratings Database", "website": "https://www.barsoho.co.uk/london-bar", "wheelchair": "no"}}, {"type": "node", "id": 639184315, "lat": 51.5089412, "lon": -0.1301099, "tags": {"amenity": "bar", "name": "Gravity"}}, {"type": "node", "id": 649697427, "lat": 51.514048, "lon": -0.159056, "tags": {"amenity": "bar", "branch": "Oxford Street", "brand": "Hard Rock Cafe", "brand:wikidata": "Q918151", "check_date": "2024-04-03", "name": "Sound"}}, {"type": "node", "id": 651030613, "lat": 51.5048497, "lon": -0.0828356}, {"type": "node", "id": 654181125, "lat": 51.5386757, "lon": -0.0768805}, {"type": "node", "id": 658951692, "lat": 51.5514345, "lon": -0.075237, "tags": {"amenity": "bar", "contact:phone": "+44 20 7241 1984", "contact:website": "http://highwaterlondon.com/", "name": "High Water", "old_name": "Bar 23", "opening_hours": "Mo-Th,Su 17:00-00:30; Fr-Sa 17:00-01:30", "outdoor_seating": "yes"}}, {"type": "node", "id": 658958431, "lat": 51.5563654, "lon": -0.074647, "tags": {"addr:city": "London", "addr:housenumber": "133-135", "addr:postcode": "N16 8BT", "addr:street": "Stoke Newington Road", "amenity": "bar", "fhrs:id": "469567", "name": "Bar a bar"}}, {"type": "node", "id": 659567985, "lat": 51.5367724, "lon": -0.0571274}, {"type": "node", "id": 661145403, "lat": 51.5179857, "lon": -0.1425493, "tags": {"amenity": "bar"}}, {"type": "node", "id": 661280195, "lat": 51.5176134, "lon": -0.1371513, "tags": {"amenity": "bar", "name": "Long Bar", "postal_code": "W1T 3NG"}}, {"type": "node", "id": 663260803, "lat": 51.515545, "lon": -0.120776, "tags": {"addr:city": "London", "addr:housenumber": "61-65", "addr:postcode": "WC2B 5BZ", "addr:street": "Great Queen Street", "amenity": "bar", "check_date": "2023-08-06", "fhrs:id": "1088928", "name": "Sway", "operator": "Stonegate", "operator:wikidata": "Q7619176", "source:addr": "FHRS Open Data", "website": "https://www.swaybar.co.uk/london", "wheelchair": "no"}}, {"type": "node", "id": 664966081, "lat": 51.5511334, "lon": -0.0748532, "tags": {"addr:city": "London", "addr:postcode": "N16 7XJ", "addr:street": "Stoke Newington Road", "amenity": "bar", "name": "tipsy", "outdoor_seating": "yes", "smoking": "outside"}}, {"type": "node", "id": 666918952, "lat": 51.5118709, "lon": -0.0756786, "tags": {"addr:city": "London", "addr:housenumber": "124-127", "addr:postcode": "EC3N 1NT", "addr:street": "Minories", "amenity": "bar", "fhrs:id": "913243", "name": "Dirty Martini Minories", "website": "https://www.maryjanesbar.com/"}}, {"type": "node", "id": 666920103, "lat": 51.512367, "lon": -0.0754101, "tags": {"addr:city": "London", "addr:housename": "St Clare House", "addr:housenumber": "30-33", "addr:postcode": "EC3N 1DD", "addr:street": "Minories", "amenity": "bar", "brand": "Slug and Lettuce", "brand:wikidata": "Q7542224", "cocktails": "yes", "fhrs:id": "294406", "food": "yes", "indoor_seating": "yes", "name": "Slug and Lettuce", "operator": "Stonegate", "operator:wikidata": "Q7619176", "outdoor_seating": "yes", "website": "https://www.slugandlettuce.co.uk/aldgate"}}, {"type": "node", "id": 668060787, "lat": 51.4790079, "lon": -0.0548486}, {"type": "node", "id": 672847951, "lat": 51.5271445, "lon": -0.0803243}, {"type": "node", "id": 672847952, "lat": 51.5270317, "lon": -0.0804841}, {"type": "node", "id": 672847971, "lat": 51.5272742, "lon": -0.0803125}, {"type": "node", "id": 674892629, "lat": 51.5327598, "lon": -0.1115541}, {"type": "node", "id": 674892634, "lat": 51.5327517, "lon": -0.1117002}, {"type": "node", "id": 675938370, "lat": 51.5088286, "lon": -0.1358278, "tags": {"addr:housenumber": "203-206", "addr:street": "Piccadilly", "amenity": "bar", "contact:phone": "+44 20 7851 2433", "level": "5", "name": "5th View"}}, {"type": "node", "id": 679823648, "lat": 51.4607034, "lon": -0.1674054, "tags": {"addr:city": "London", "addr:country": "GB", "addr:housenumber": "85", "addr:postcode": "SW11 1HW", "addr:street": "Battersea Rise", "alt_name": "Be At One Battersea", "amenity": "bar", "brand": "Be At One", "brand:wikidata": "Q110016786", "cocktails": "yes", "fhrs:id": "1571500", "name": "Be At One", "operator": "Stonegate", "operator:wikidata": "Q7619176", "source:addr": "FHRS Open Data", "website": "https://www.beatone.co.uk/battersea"}}, {"type": "node", "id": 691719964, "lat": 51.5156823, "lon": -0.13583, "tags": {"addr:city": "London", "addr:housenumber": "201-203", "addr:street": "Wardour Street", "amenity": "bar", "brand": "Simmons Bars", "brand:wikidata": "Q109991573", "check_date": "2024-06-07", "cocktails": "yes", "name": "Simmons", "phone": "020 3879 9251", "postal_code": "W1F 8ZD", "source:addr": "FSA Food Hygiene Ratings Database", "source:postcode": "FSA Food Hygiene Ratings Database", "website": "https://www.simmonsbar.co.uk/venues/oxford-street/"}}, {"type": "node", "id": 692043355, "lat": 51.5373385, "lon": -0.0613647}, {"type": "node", "id": 692162590, "lat": 51.5135384, "lon": -0.0828514, "tags": {"addr:city": "London", "addr:housenumber": "140-144", "addr:postcode": "EC3V 4QT", "addr:street": "Leadenhall Street", "addr:unit": "Retail Unit", "amenity": "bar", "brand": "Revolution", "brand:wikidata": "Q64024398", "cocktails": "yes", "fhrs:id": "294520", "name": "Revolution", "wheelchair": "yes"}}, {"type": "node", "id": 692190788, "lat": 51.5137372, "lon": -0.1299905, "tags": {"addr:city": "London", "addr:housenumber": "12", "addr:postcode": "W1D 4TF", "addr:street": "Old Compton Street", "amenity": "bar", "contact:facebook": "https://www.facebook.com/barswift/", "contact:instagram": "https://www.instagram.com/swiftbars/", "contact:twitter": "https://twitter.com/barswift/", "cuisine": "japanese", "email": "soho@barswift.com", "name": "Swift Bar", "opening_hours": "Mo-Th 12:00-22:30; Fr 12:00-22:45; Sa 12:30-22:45; Su 12:30-21:30", "phone": "+44 20 7439 2275", "website": "https://www.barswift.com/soho", "wheelchair": "no"}}, {"type": "node", "id": 694474726, "lat": 51.510773, "lon": -0.076834, "tags": {"amenity": "bar", "name": "Isis"}}, {"type": "node", "id": 701740002, "lat": 51.5445069, "lon": -0.0470143}, {"type": "node", "id": 701740007, "lat": 51.5444402, "lon": -0.04678}, {"type": "node", "id": 702800770, "lat": 51.5108963, "lon": -0.0893829}, {"type": "node", "id": 703528109, "lat": 51.5280828, "lon": -0.1010713, "tags": {"amenity": "bar", "name": "City Bar", "wheelchair": "yes"}}, {"type": "node", "id": 705171424, "lat": 51.4400673, "lon": -0.1256589, "tags": {"amenity": "bar", "cuisine": "tapas", "fixme": "check", "name": "Bar 61", "source": "BrixtonVillageMap"}}, {"type": "node", "id": 735150119, "lat": 51.5188885, "lon": -0.1365011}, {"type": "node", "id": 737210971, "lat": 51.5203575, "lon": -0.0875923, "tags": {"addr:city": "London", "addr:housenumber": "127", "addr:postcode": "EC2A 1NS", "addr:street": "Finsbury Pavement", "amenity": "bar", "brand": "All Bar One", "brand:wikidata": "Q4728624", "cocktails": "yes", "fhrs:id": "416443", "indoor_seating": "yes", "name": "All Bar One", "outdoor_seating": "yes", "wheelchair": "yes", "wifi": "no"}}, {"type": "node", "id": 747810922, "lat": 51.5141296, "lon": -0.102429}, {"type": "node", "id": 747810938, "lat": 51.513942, "lon": -0.1026198}, {"type": "node", "id": 747810940, "lat": 51.5137972, "lon": -0.1027084}, {"type": "node", "id": 749430289, "lat": 51.5048512, "lon": -0.0825059}, {"type": "node", "id": 749430297, "lat": 51.50477, "lon": -0.0825397}, {"type": "node", "id": 749430304, "lat": 51.5047876, "lon": -0.0826879}, {"type": "node", "id": 752177862, "lat": 51.5260809, "lon": -0.0799005, "tags": {"addr:city": "London", "addr:country": "GB", "addr:housenumber": "120-124", "addr:postcode": "EC2A 3SQ", "addr:street": "Curtain Road", "amenity": "bar", "check_date": "2023-12-15", "cuisine": "burger", "diet:vegan": "yes", "diet:vegetarian": "yes", "dog": "leashed", "fhrs:id": "469463", "food": "yes", "indoor_seating": "yes", "name": "Strongroom", "opening_hours": "Mo 12:00-23:00; Tu-We 12:00-24:00; Th 12:00-01:00; Fr-Sa 12:00-02:00; Su 12:00-22:00", "outdoor_seating": "yes", "payment:credit_cards": "yes", "payment:debit_cards": "yes", "phone": "+44 20 7426 5103", "reservation": "yes", "smoking": "outside", "website": "https://www.strongroombar.com", "wheelchair": "no"}}, {"type": "node", "id": 761830979, "lat": 51.5127295, "lon": -0.1082362}, {"type": "node", "id": 763167291, "lat": 51.557663, "lon": 0.0703194}, {"type": "node", "id": 764404144, "lat": 51.5201417, "lon": -0.101868}, {"type": "node", "id": 764404149, "lat": 51.5201348, "lon": -0.1020124}, {"type": "node", "id": 766467560, "lat": 51.5133434, "lon": -0.1019474}, {"type": "node", "id": 766467561, "lat": 51.5133515, "lon": -0.1020472}, {"type": "node", "id": 772052353, "lat": 51.4811044, "lon": -0.1993362, "tags": {"addr:city": "London", "addr:country": "GB", "addr:housenumber": "374", "addr:postcode": "SW6 1LY", "addr:street": "North End Road", "amenity": "bar", "brand": "Simmons Bars", "brand:wikidata": "Q109991573", "cocktails": "yes", "fhrs:id": "1071548", "name": "Simmons Bar", "old_name": "Sugar Hut"}}, {"type": "node", "id": 775502768, "lat": 51.5429093, "lon": -0.0554867}, {"type": "node", "id": 796931869, "lat": 51.5126831, "lon": -0.0827842, "tags": {"amenity": "bar", "name": "Corney & Barrow"}}, {"type": "node", "id": 815265120, "lat": 51.5364905, "lon": -0.1010422, "tags": {"addr:housenumber": "69", "addr:street": "Colebrooke Row", "amenity": "bar", "name": "69 Colebrooke Row", "website": "http://www.69colebrookerow.com"}}, {"type": "node", "id": 821344055, "lat": 51.5108879, "lon": -0.124759, "tags": {"addr:city": "London", "addr:housenumber": "20", "addr:postcode": "WC2E 9HP", "addr:street": "Bedford Street", "amenity": "bar", "level": "-1", "name": "Adventure Bar", "old_name": "The bok bar", "wheelchair": "no"}}, {"type": "node", "id": 830477754, "lat": 51.5239027, "lon": -0.074397, "tags": {"addr:city": "London", "addr:housenumber": "19-23", "addr:postcode": "E1 6LA", "addr:street": "Bethnal Green Road", "amenity": "bar", "contact:email": "info@joanshoreditch.co.uk", "fhrs:id": "98328", "name": "Joan", "opening_hours": "Mo-Th 12:00-00:00; Fr 12:00-03:00; Sa 10:00-03:00; Su 10:00-23:00", "phone": "+44 20 8145 5217", "source:addr:postcode": "FHRS Open Data", "website": "https://joanshoreditch.co.uk"}}, {"type": "node", "id": 846591119, "lat": 51.5610972, "lon": -0.1373181}, {"type": "node", "id": 846591189, "lat": 51.561049, "lon": -0.1373422}, {"type": "node", "id": 846591200, "lat": 51.5610627, "lon": -0.1371398}, {"type": "node", "id": 846591267, "lat": 51.5610145, "lon": -0.1371639}, {"type": "node", "id": 849359896, "lat": 51.4621622, "lon": -0.0698624}, {"type": "node", "id": 849359905, "lat": 51.462188, "lon": -0.0697853}, {"type": "node", "id": 849359924, "lat": 51.4620229, "lon": -0.0696393}, {"type": "node", "id": 849359926, "lat": 51.4619957, "lon": -0.0697186}, {"type": "node", "id": 849731529, "lat": 51.5079091, "lon": -0.1233998}, {"type": "node", "id": 849731575, "lat": 51.5080859, "lon": -0.1241964}, {"type": "node", "id": 849731635, "lat": 51.5081428, "lon": -0.1241161}, {"type": "node", "id": 849731668, "lat": 51.5079397, "lon": -0.1232366}, {"type": "node", "id": 849731685, "lat": 51.5076753, "lon": -0.124379, "tags": {"amenity": "bar", "layer": "-1", "name": "The Players"}}, {"type": "node", "id": 849731735, "lat": 51.5082859, "lon": -0.1243632}, {"type": "node", "id": 849731737, "lat": 51.5079755, "lon": -0.1232985}, {"type": "node", "id": 849731770, "lat": 51.5078593, "lon": -0.1233118}, {"type": "node", "id": 849731774, "lat": 51.5082295, "lon": -0.1244477}, {"type": "node", "id": 855066534, "lat": 51.5153678, "lon": -0.0766916, "tags": {"addr:city": "London", "addr:housenumber": "5", "addr:postcode": "E1 7BS", "addr:street": "White Kennett Street", "amenity": "bar", "fhrs:id": "294279", "name": "La Piazetta", "toilets:wheelchair": "no", "wheelchair": "limited"}}, {"type": "node", "id": 863936768, "lat": 51.5453464, "lon": -0.2018222}, {"type": "node", "id": 863936774, "lat": 51.5455507, "lon": -0.201851}, {"type": "node", "id": 863936777, "lat": 51.5454439, "lon": -0.201744}, {"type": "node", "id": 863936779, "lat": 51.5455017, "lon": -0.2019776}, {"type": "node", "id": 863936791, "lat": 51.5454001, "lon": -0.2016837}, {"type": "node", "id": 863936796, "lat": 51.5454485, "lon": -0.2017321}, {"type": "node", "id": 870407541, "lat": 51.4732472, "lon": -0.0704783}, {"type": "node", "id": 870407548, "lat": 51.4732472, "lon": -0.0705451}, {"type": "node", "id": 870407655, "lat": 51.4729775, "lon": -0.0704492}, {"type": "node", "id": 870407704, "lat": 51.4729746, "lon": -0.0705162}, {"type": "node", "id": 870407958, "lat": 51.4730733, "lon": -0.0705267}, {"type": "node", "id": 890557364, "lat": 51.5192806, "lon": -0.1130211}, {"type": "node", "id": 892984765, "lat": 51.5455929, "lon": -0.2020688}, {"type": "node", "id": 892984771, "lat": 51.5456419, "lon": -0.2019428}, {"type": "node", "id": 892984774, "lat": 51.5455338, "lon": -0.2020098}, {"type": "node", "id": 892984789, "lat": 51.5455829, "lon": -0.2018831}, {"type": "node", "id": 919681381, "lat": 51.469818, "lon": -0.0665527}, {"type": "node", "id": 919681423, "lat": 51.469939, "lon": -0.0666151}, {"type": "node", "id": 928068565, "lat": 51.5234634, "lon": -0.1356966}, {"type": "node", "id": 931615200, "lat": 51.5435584, "lon": -0.1514692}, {"type": "node", "id": 931625768, "lat": 51.5396407, "lon": -0.1439585, "tags": {"addr:housenumber": "10", "addr:street": "Inverness Road", "amenity": "bar", "name": "Out on the Floor", "wheelchair": "no"}}, {"type": "node", "id": 931625776, "lat": 51.5397399, "lon": -0.1436627, "tags": {"addr:housenumber": "2", "addr:street": "Inverness Road", "amenity": "bar", "name": "Gansa", "wheelchair": "no"}}, {"type": "node", "id": 931625778, "lat": 51.5397328, "lon": -0.1436895, "tags": {"addr:housenumber": "4", "addr:street": "Inverness Road", "amenity": "bar", "name": "Uno"}}, {"type": "node", "id": 931625780, "lat": 51.5397194, "lon": -0.1437297, "tags": {"addr:housenumber": "6", "addr:street": "Inverness Road", "amenity": "bar", "name": "Vinyi", "wheelchair": "no"}}, {"type": "node", "id": 931631872, "lat": 51.5395671, "lon": -0.1441708, "tags": {"addr:housenumber": "16", "addr:street": "Inverness Road", "amenity": "bar", "name": "Iensai", "wheelchair": "limited"}}, {"type": "node", "id": 931652783, "lat": 51.5429879, "lon": -0.1488741}, {"type": "node", "id": 941794222, "lat": 51.4801971, "lon": -0.1922734}, {"type": "node", "id": 954731754, "lat": 51.576708, "lon": 0.065921, "tags": {"amenity": "bar", "name": "Red Corner"}}, {"type": "node", "id": 956206251, "lat": 51.4791374, "lon": -0.0547275}, {"type": "node", "id": 956206284, "lat": 51.4791862, "lon": -0.054862}, {"type": "node", "id": 956206385, "lat": 51.4790567, "lon": -0.054983}, {"type": "node", "id": 957226799, "lat": 51.5071609, "lon": -0.1232484, "tags": {"addr:city": "London", "amenity": "bar"}}, {"type": "node", "id": 959774426, "lat": 51.5075505, "lon": -0.0960649}, {"type": "node", "id": 959774637, "lat": 51.5076574, "lon": -0.0963162}, {"type": "node", "id": 963509357, "lat": 51.5052244, "lon": -0.0900307}, {"type": "node", "id": 963509650, "lat": 51.5053186, "lon": -0.0899037}, {"type": "node", "id": 963509703, "lat": 51.5051824, "lon": -0.0899598}, {"type": "node", "id": 963509986, "lat": 51.5052935, "lon": -0.0898484}, {"type": "node", "id": 973036711, "lat": 51.5108156, "lon": -0.1241523}, {"type": "node", "id": 993185956, "lat": 51.5266263, "lon": -0.0802595}, {"type": "node", "id": 1030867315, "lat": 51.4091783, "lon": -0.3073967, "tags": {"amenity": "bar"}}, {"type": "node", "id": 1039290554, "lat": 51.5170851, "lon": -0.0805763, "tags": {"addr:city": "London", "addr:housenumber": "158", "addr:postcode": "EC2M 4LX", "addr:street": "Bishopsgate", "amenity": "bar", "check_date": "2024-08-28", "fhrs:id": "578601", "name": "Dirty Martini", "opening_hours": "Mo-We 14:00-01:00, Th 14:00-03:00, Fr 14:00-03:00, Sa 14:00-03:00, Su 14:00-01:00", "wheelchair": "no"}}, {"type": "node", "id": 1042876958, "lat": 51.5180663, "lon": -0.079494}, {"type": "node", "id": 1043439188, "lat": 51.5250809, "lon": -0.1352962}, {"type": "node", "id": 1089089330, "lat": 51.5128758, "lon": -0.1262322}, {"type": "node", "id": 1092768296, "lat": 51.4778874, "lon": -0.0128174}, {"type": "node", "id": 1092768299, "lat": 51.4780048, "lon": -0.0128962}, {"type": "node", "id": 1092768300, "lat": 51.4779297, "lon": -0.0126377}, {"type": "node", "id": 1093693320, "lat": 51.5040569, "lon": -0.0948683}, {"type": "node", "id": 1093694010, "lat": 51.5041382, "lon": -0.0948942}, {"type": "node", "id": 1093694099, "lat": 51.5040777, "lon": -0.0949383}, {"type": "node", "id": 1093694362, "lat": 51.5041362, "lon": -0.094809}, {"type": "node", "id": 1110892586, "lat": 51.4429452, "lon": -0.1489901, "tags": {"amenity": "bar", "name": "Adventure"}}, {"type": "node", "id": 1112173685, "lat": 51.4647613, "lon": -0.1592463, "tags": {"addr:city": "London", "addr:housenumber": "171", "addr:postcode": "SW11 4LW", "addr:street": "Lavender Hill", "amenity": "bar", "fhrs:id": "845288", "name": "The Lavender"}}, {"type": "node", "id": 1112173731, "lat": 51.4638562, "lon": -0.1651828, "tags": {"addr:city": "London", "addr:housenumber": "281", "addr:postcode": "SW11 1LP", "addr:street": "Lavender Hill", "amenity": "bar", "fhrs:id": "1576560", "name": "Hannah", "source:addr": "FHRS Open Data"}}, {"type": "node", "id": 1112173743, "lat": 51.4641787, "lon": -0.1631455, "tags": {"amenity": "bar", "facebook": "danish", "name": "Sugar Cane Bar"}}, {"type": "node", "id": 1112173871, "lat": 51.4631057, "lon": -0.1694453, "tags": {"addr:city": "London", "addr:housename": "The Grand", "addr:housenumber": "21-25", "addr:postcode": "SW11 1TT", "addr:street": "Saint John's Hill", "amenity": "bar", "fhrs:id": "1571440", "name": "Clapham Grand", "source:addr": "FHRS Open Data"}}, {"type": "node", "id": 1112173972, "lat": 51.4603686, "lon": -0.1771672}, {"type": "node", "id": 1112279181, "lat": 51.4595785, "lon": -0.1666808, "tags": {"addr:city": "London", "addr:housenumber": "32-38", "addr:postcode": "SW11 1NZ", "addr:street": "Northcote Road", "amenity": "bar", "brand": "All Bar One", "brand:wikidata": "Q4728624", "cocktails": "yes", "fhrs:id": "1571578", "name": "All Bar One", "source:addr": "FHRS Open Data", "toilets": "yes", "toilets:wheelchair": "yes", "wheelchair": "yes"}}, {"type": "node", "id": 1112279241, "lat": 51.4604207, "lon": -0.1666379, "tags": {"addr:city": "London", "addr:housenumber": "3-7", "addr:postcode": "SW11 1NG", "addr:street": "Northcote Road", "amenity": "bar", "fhrs:id": "297928", "name": "Archer Street", "source:addr": "FHRS Open Data", "wheelchair": "yes"}}, {"type": "node", "id": 1112295723, "lat": 51.4606746, "lon": -0.1675611, "tags": {"amenity": "bar", "cuisine": "asian", "name": "Adventure Bar"}}, {"type": "node", "id": 1125593736, "lat": 51.5201312, "lon": -0.100681}, {"type": "node", "id": 1125593770, "lat": 51.5203271, "lon": -0.1004876}, {"type": "node", "id": 1125593829, "lat": 51.5203262, "lon": -0.1004623}, {"type": "node", "id": 1125594030, "lat": 51.520206, "lon": -0.1003375}, {"type": "node", "id": 1125594164, "lat": 51.5201069, "lon": -0.1006464, "tags": {"highway": "street_lamp", "lamp_mount": "wall"}}, {"type": "node", "id": 1126076469, "lat": 51.5164662, "lon": -0.1404867}, {"type": "node", "id": 1126076475, "lat": 51.5164489, "lon": -0.140479}, {"type": "node", "id": 1128916177, "lat": 51.523118, "lon": -0.1005607}, {"type": "node", "id": 1128916324, "lat": 51.52315, "lon": -0.1004509}, {"type": "node", "id": 1128916338, "lat": 51.5232053, "lon": -0.1006313}, {"type": "node", "id": 1128916355, "lat": 51.5232522, "lon": -0.1005231}, {"type": "node", "id": 1128916372, "lat": 51.5232677, "lon": -0.1006819}, {"type": "node", "id": 1128916424, "lat": 51.5232852, "lon": -0.1006969}, {"type": "node", "id": 1128916438, "lat": 51.5231317, "lon": -0.1005132}, {"type": "node", "id": 1129726529, "lat": 51.3620918, "lon": -0.1932246}, {"type": "node", "id": 1129726567, "lat": 51.3621192, "lon": -0.1936991}, {"type": "node", "id": 1129726572, "lat": 51.3620452, "lon": -0.1936775}, {"type": "node", "id": 1129726688, "lat": 51.3621675, "lon": -0.1932477}, {"type": "node", "id": 1138970574, "lat": 51.5220952, "lon": -0.1351213}, {"type": "node", "id": 1139920142, "lat": 51.5189365, "lon": -0.1365947}, {"type": "node", "id": 1139920213, "lat": 51.5188926, "lon": -0.1367333}, {"type": "node", "id": 1149459137, "lat": 51.526026, "lon": -0.1090074}, {"type": "node", "id": 1149459281, "lat": 51.5260587, "lon": -0.1091402}, {"type": "node", "id": 1149459343, "lat": 51.5250623, "lon": -0.1103685}, {"type": "node", "id": 1149459366, "lat": 51.526087, "lon": -0.1090823}, {"type": "node", "id": 1149459491, "lat": 51.5249544, "lon": -0.1103306}, {"type": "node", "id": 1155427053, "lat": 51.5117981, "lon": -0.1200785}, {"type": "node", "id": 1155427510, "lat": 51.5117915, "lon": -0.1202519}, {"type": "node", "id": 1155427587, "lat": 51.5118382, "lon": -0.1201352}, {"type": "node", "id": 1155427713, "lat": 51.511818, "lon": -0.1200781}, {"type": "node", "id": 1155428822, "lat": 51.5118079, "lon": -0.1200728}, {"type": "node", "id": 1155428996, "lat": 51.5117802, "lon": -0.1202842}, {"type": "node", "id": 1155429061, "lat": 51.5117316, "lon": -0.1202342}, {"type": "node", "id": 1156331117, "lat": 51.5107406, "lon": -0.124325}, {"type": "node", "id": 1156331216, "lat": 51.5107305, "lon": -0.124325}, {"type": "node", "id": 1156331283, "lat": 51.5106654, "lon": -0.1239777}, {"type": "node", "id": 1164110889, "lat": 51.5222905, "lon": -0.0868419, "tags": {"addr:city": "London", "addr:country": "GB", "addr:housenumber": "1", "addr:postcode": "EC1Y 1AG", "addr:street": "City Road", "amenity": "bar", "check_date": "2023-06-29", "fhrs:id": "457783", "food": "yes", "indoor_seating": "yes", "name": "Singer Tavern", "outdoor_seating": "yes", "payment:credit_cards": "yes", "payment:debit_cards": "yes", "phone": "+44 20 3752 2680", "source:addr": "FHRS Open Data", "website": "https://www.singertavern.com/", "wheelchair": "no"}}, {"type": "node", "id": 1165343919, "lat": 51.5178142, "lon": -0.1033222}, {"type": "node", "id": 1172459585, "lat": 51.500525, "lon": -0.0879475}, {"type": "node", "id": 1172460032, "lat": 51.5004609, "lon": -0.0877979}, {"type": "node", "id": 1172460255, "lat": 51.5003781, "lon": -0.0881142}, {"type": "node", "id": 1172460404, "lat": 51.5003102, "lon": -0.0879665}, {"type": "node", "id": 1190630003, "lat": 51.5464904, "lon": -0.1902686}, {"type": "node", "id": 1190630007, "lat": 51.5465551, "lon": -0.1902773}, {"type": "node", "id": 1190630014, "lat": 51.5464978, "lon": -0.190156}, {"type": "node", "id": 1190630015, "lat": 51.5465882, "lon": -0.1901685}, {"type": "node", "id": 1190630017, "lat": 51.5465815, "lon": -0.1902811}, {"type": "node", "id": 1190630021, "lat": 51.5465041, "lon": -0.1900368}, {"type": "node", "id": 1190630022, "lat": 51.5465946, "lon": -0.1900494}, {"type": "node", "id": 1230827961, "lat": 51.5232269, "lon": -0.1379952, "tags": {"addr:city": "London", "addr:housenumber": "112", "addr:postcode": "W1T 5EE", "addr:street": "Whitfield Street", "amenity": "bar", "check_date": "2024-11-14", "fhrs:id": "1316490", "indoor_seating": "yes", "name": "Broski", "outdoor_seating": "yes", "source:addr": "FHRS Open Data", "wikidata": "Q27086602"}}, {"type": "node", "id": 1232048603, "lat": 51.4971954, "lon": -0.145921}, {"type": "node", "id": 1232048747, "lat": 51.497223, "lon": -0.1459474}, {"type": "node", "id": 1232048784, "lat": 51.4973497, "lon": -0.1458559}, {"type": "node", "id": 1233296278, "lat": 51.5490132, "lon": -0.1710547}, {"type": "node", "id": 1233296315, "lat": 51.549085, "lon": -0.1709315}, {"type": "node", "id": 1235254621, "lat": 51.5106373, "lon": -0.1373243, "tags": {"addr:housenumber": "1-3", "addr:street": "Warwick Street", "amenity": "bar", "name": "The Warwick", "phone": "+44 20 7734 4409", "website": "https://www.thewarwick.co.uk/", "wheelchair": "yes"}}, {"type": "node", "id": 1236791292, "lat": 51.5137744, "lon": -0.1026788}, {"type": "node", "id": 1236791411, "lat": 51.514052, "lon": -0.1023601}, {"type": "node", "id": 1236791521, "lat": 51.5156412, "lon": -0.1037814}, {"type": "node", "id": 1236791623, "lat": 51.5139299, "lon": -0.1026483}, {"type": "node", "id": 1242276990, "lat": 51.5283592, "lon": -0.0926343}, {"type": "node", "id": 1251663447, "lat": 51.5239574, "lon": -0.128354, "tags": {"amenity": "bar", "check_date:opening_hours": "2024-09-05", "name": "Bloomsbury Lanes", "opening_hours:signed": "no", "sport": "10pin", "url": "http://www.bloomsburybowling.com/", "wheelchair": "yes"}}, {"type": "node", "id": 1252535365, "lat": 51.4609649, "lon": -0.1651402, "tags": {"addr:city": "London", "addr:housenumber": "46", "addr:postcode": "SW11 1EE", "addr:street": "Battersea Rise", "amenity": "bar", "fhrs:id": "1662132", "name": "Tequila Mockingbird", "source:addr": "FHRS Open Data"}}, {"type": "node", "id": 1261429012, "lat": 51.5164499, "lon": -0.1428225}, {"type": "node", "id": 1261429157, "lat": 51.5164778, "lon": -0.1426675}, {"type": "node", "id": 1261429177, "lat": 51.5165049, "lon": -0.142649}, {"type": "node", "id": 1263373873, "lat": 51.3954125, "lon": 0.1404583, "tags": {"amenity": "bar", "name": "Jubilee Bar", "nudism": "yes"}}, {"type": "node", "id": 1265087042, "lat": 51.5170244, "lon": -0.1417238, "tags": {"addr:city": "London", "addr:housenumber": "17", "addr:street": "Little Portland Street", "amenity": "bar", "fhrs:confidence_management": "10", "fhrs:hygiene": "0", "fhrs:id": "412480", "fhrs:local_authority_id": "00846/0016/0/007", "fhrs:rating": "4", "fhrs:structural": "0", "name": "The Aviary Bar", "postal_code": "W1W 8BW", "source:addr": "FSA Food Hygiene Ratings Database", "source:postcode": "FSA Food Hygiene Ratings Database"}}, {"type": "node", "id": 1280271962, "lat": 51.4942114, "lon": -0.1366387, "tags": {"addr:city": "London", "addr:housenumber": "69", "addr:postcode": "SW1P 2PA", "addr:street": "Vincent Square", "amenity": "bar", "contact:phone": "+44 20 7828 6611", "name": "Rochester Brasserie", "outdoor_seating": "no"}}, {"type": "node", "id": 1314925484, "lat": 51.456217, "lon": -0.1438869, "tags": {"amenity": "bar", "name": "Firefly"}}, {"type": "node", "id": 1319499739, "lat": 51.5775171, "lon": -0.3986165, "tags": {"addr:housenumber": "184", "addr:postcode": "HA5 1RF", "addr:street": "Field End Road", "amenity": "bar", "fhrs:id": "518923", "name": "Champers", "website": "http://champerswinebar.co.uk"}}, {"type": "node", "id": 1319513716, "lat": 51.5783023, "lon": -0.3990229, "tags": {"addr:housenumber": "163", "addr:postcode": "HA5 1QL", "addr:street": "Field End Road", "amenity": "bar", "fhrs:id": "518914", "name": "Geo Bar"}}, {"type": "node", "id": 1342099730, "lat": 51.5334441, "lon": -0.1106806}, {"type": "node", "id": 1342099776, "lat": 51.533571, "lon": -0.1107031}, {"type": "node", "id": 1342099849, "lat": 51.5334481, "lon": -0.1106153}, {"type": "node", "id": 1342099922, "lat": 51.5335738, "lon": -0.1106351}, {"type": "node", "id": 1342404740, "lat": 51.5327076, "lon": -0.111536}, {"type": "node", "id": 1342404747, "lat": 51.5327413, "lon": -0.1118327}, {"type": "node", "id": 1342404764, "lat": 51.5326638, "lon": -0.1118141}, {"type": "node", "id": 1342404777, "lat": 51.5326833, "lon": -0.1115979}, {"type": "node", "id": 1342404796, "lat": 51.5326918, "lon": -0.1115581}, {"type": "node", "id": 1343976186, "lat": 51.5327605, "lon": -0.111545}, {"type": "node", "id": 1343976187, "lat": 51.5327607, "lon": -0.1115385}, {"type": "node", "id": 1346356021, "lat": 51.5042272, "lon": -0.1032036, "tags": {"addr:city": "London", "addr:housename": "Railway Arch 80", "addr:housenumber": "80", "addr:postcode": "SE1 0XN", "addr:street": "Scoresby Street", "amenity": "bar", "contact:phone": "+44 20 7928 0905", "drink:wine": "yes", "indoor_seating": "yes", "name": "Southwark Tap & Wine Bar", "opening_hours": "Mo-Fr 11:30-23:00", "outdoor_seating": "no", "shop": "wine", "wheelchair": "yes"}}, {"type": "node", "id": 1360505700, "lat": 51.4938009, "lon": -0.1823815, "tags": {"addr:housenumber": "140", "addr:street": "Gloucester Road", "amenity": "bar", "name": "Olives Bar", "opening_hours": "Mo-Su 12:00-22:30", "phone": "+44 20 7331 6308", "website": "https://www.millenniumhotels.com/en/london/the-baileys-hotel-london/olives-bar/"}}, {"type": "node", "id": 1368258354, "lat": 51.4855925, "lon": -0.1738462, "tags": {"addr:city": "London", "addr:housenumber": "316-318", "addr:postcode": "SW3 5UH", "addr:street": "King's Road", "amenity": "bar", "contact:facebook": "calloohcallaychelsea", "contact:instagram": "calloohcallaychelsea", "contact:phone": "+44 20 7351 5998", "name": "Callooh Callay", "opening_hours": "Mo-Su 18:00-01:00", "website": "https://www.calloohcallaybar-chelsea.com/", "website:menu": "https://www.calloohcallaybar-chelsea.com/menus"}}, {"type": "node", "id": 1374255594, "lat": 51.4739554, "lon": -0.207085, "tags": {"addr:city": "London", "addr:housenumber": "873", "addr:postcode": "SW6 5HP", "addr:street": "Fulham Road", "amenity": "bar", "name": "The Little Blue Door", "opening_hours": "Mo-Su 12:00-00:00", "website": "https://www.thelittlebluedoor.co.uk/"}}, {"type": "node", "id": 1375162582, "lat": 51.480181, "lon": -0.1974148}, {"type": "node", "id": 1376881308, "lat": 51.6567743, "lon": -0.2020638, "tags": {"amenity": "bar", "name": "The Reks"}}, {"type": "node", "id": 1377064259, "lat": 51.5162804, "lon": -0.1111998, "tags": {"amenity": "bar", "name": "Grand Union \u2013 Chancery Lane"}}, {"type": "node", "id": 1389431871, "lat": 51.4774896, "lon": -0.0148071, "tags": {"addr:city": "London", "addr:housenumber": "161", "addr:postcode": "SE10 8JA", "addr:street": "Greenwich High Road", "amenity": "bar", "fhrs:id": "694368", "name": "Davy's Wine Vaults", "old:fhrs:id": "694368", "outdoor_seating": "yes", "source:addr": "FHRS Open Data", "wheelchair": "no"}}, {"type": "node", "id": 1398632683, "lat": 51.5011069, "lon": -0.1118075}, {"type": "node", "id": 1398632707, "lat": 51.5011445, "lon": -0.111886}, {"type": "node", "id": 1448823359, "lat": 51.52495, "lon": -0.1351613, "tags": {"entrance": "emergency", "wheelchair": "yes"}}, {"type": "node", "id": 1450814226, "lat": 51.5464169, "lon": -0.0739876}, {"type": "node", "id": 1450814234, "lat": 51.54642, "lon": -0.0738117}, {"type": "node", "id": 1454248933, "lat": 51.6104438, "lon": -0.279408, "tags": {"addr:housenumber": "75", "addr:postcode": "HA8 7DD", "addr:street": "High Street", "amenity": "bar", "name": "Luna Lounge"}}, {"type": "node", "id": 1473318842, "lat": 51.5188075, "lon": -0.1366169}, {"type": "node", "id": 1473318868, "lat": 51.5188651, "lon": -0.136535}, {"type": "node", "id": 1489585778, "lat": 51.5791104, "lon": -0.3337461, "tags": {"addr:city": "Harrow", "addr:housenumber": "380", "addr:postcode": "HA1 2DE", "addr:street": "Station Road", "amenity": "bar", "check_date": "2025-03-01", "fhrs:id": "276316", "indoor_seating": "yes", "name": "Trinity", "outdoor_seating": "yes", "source:addr": "FHRS Open Data"}}, {"type": "node", "id": 1494827525, "lat": 51.5129107, "lon": -0.1264668}, {"type": "node", "id": 1496726762, "lat": 51.5135795, "lon": -0.1389365}, {"type": "node", "id": 1535410266, "lat": 51.5073215, "lon": -0.0227975}, {"type": "node", "id": 1535410292, "lat": 51.5073364, "lon": -0.0227969}, {"type": "node", "id": 1535410304, "lat": 51.5072857, "lon": -0.0224645}, {"type": "node", "id": 1535410312, "lat": 51.5076096, "lon": -0.0223761}, {"type": "node", "id": 1545756620, "lat": 51.4195282, "lon": -0.0799418}, {"type": "node", "id": 1556324621, "lat": 51.5097262, "lon": -0.0793065}, {"type": "node", "id": 1556324665, "lat": 51.5098598, "lon": -0.0788384}, {"type": "node", "id": 1556324667, "lat": 51.5099015, "lon": -0.0792019}, {"type": "node", "id": 1556324680, "lat": 51.5096947, "lon": -0.0788465}, {"type": "node", "id": 1556324774, "lat": 51.5097003, "lon": -0.079273}, {"type": "node", "id": 1556324776, "lat": 51.5098631, "lon": -0.0789645}, {"type": "node", "id": 1556324799, "lat": 51.509894, "lon": -0.0789645}, {"type": "node", "id": 1558137104, "lat": 51.5373735, "lon": -0.0579804}, {"type": "node", "id": 1558137125, "lat": 51.5377636, "lon": -0.0579887}, {"type": "node", "id": 1558137126, "lat": 51.5377666, "lon": -0.0576338}, {"type": "node", "id": 1569238026, "lat": 51.5115237, "lon": -0.0884675}, {"type": "node", "id": 1569238111, "lat": 51.511459, "lon": -0.0884917}, {"type": "node", "id": 1569238124, "lat": 51.5115681, "lon": -0.0886208}, {"type": "node", "id": 1569402404, "lat": 51.5132313, "lon": -0.0793051}, {"type": "node", "id": 1569402409, "lat": 51.5131245, "lon": -0.0794164}, {"type": "node", "id": 1569402515, "lat": 51.5131637, "lon": -0.0795063}, {"type": "node", "id": 1569402590, "lat": 51.5132505, "lon": -0.0794808}, {"type": "node", "id": 1569402593, "lat": 51.5131295, "lon": -0.0795096}, {"type": "node", "id": 1569475549, "lat": 51.5134184, "lon": -0.0764527}, {"type": "node", "id": 1569475564, "lat": 51.5133707, "lon": -0.076445}, {"type": "node", "id": 1574814548, "lat": 51.511301, "lon": -0.0297617, "tags": {"addr:city": "London", "addr:housenumber": "27", "addr:postcode": "E14 8HH", "addr:street": "Three Colt Street", "amenity": "bar", "fhrs:id": "78297", "level": "0", "name": "Jamboree", "note": "Jamboree exists within 5b Urban Bar.", "opening_hours": "Mo-Th 19:00-23:00, Fr-Sa 20:00-00:00, Su \"varies\"", "operator": "Free House", "smoking": "no", "website": "https://jamboreevenue.co.uk/"}}, {"type": "node", "id": 1575939776, "lat": 51.5395849, "lon": -0.1424576}, {"type": "node", "id": 1584898715, "lat": 51.5147718, "lon": -0.1312752}, {"type": "node", "id": 1601797439, "lat": 51.5188514, "lon": -0.1006696}, {"type": "node", "id": 1601797441, "lat": 51.5189198, "lon": -0.1007551}, {"type": "node", "id": 1601797442, "lat": 51.5189334, "lon": -0.1004837}, {"type": "node", "id": 1601797444, "lat": 51.5189447, "lon": -0.1004972}, {"type": "node", "id": 1601797447, "lat": 51.5189579, "lon": -0.1007418}, {"type": "node", "id": 1601797448, "lat": 51.5189731, "lon": -0.1003738}, {"type": "node", "id": 1601797450, "lat": 51.5190154, "lon": -0.1005546}, {"type": "node", "id": 1601797453, "lat": 51.519036, "lon": -0.1002148}, {"type": "node", "id": 1601797454, "lat": 51.519049, "lon": -0.1002266}, {"type": "node", "id": 1601797455, "lat": 51.5190485, "lon": -0.100444}, {"type": "node", "id": 1601797459, "lat": 51.5191028, "lon": -0.1002755}, {"type": "node", "id": 1601832386, "lat": 51.5201599, "lon": -0.1004694}, {"type": "node", "id": 1601832392, "lat": 51.5201951, "lon": -0.1004985}, {"type": "node", "id": 1601832395, "lat": 51.5202269, "lon": -0.1003281}, {"type": "node", "id": 1601832398, "lat": 51.520244, "lon": -0.1005729}, {"type": "node", "id": 1602849324, "lat": 51.5242952, "lon": -0.1030274}, {"type": "node", "id": 1602849333, "lat": 51.5243229, "lon": -0.1028669}, {"type": "node", "id": 1602849336, "lat": 51.5243625, "lon": -0.1029393}, {"type": "node", "id": 1607078922, "lat": 51.5200738, "lon": -0.1020095}, {"type": "node", "id": 1607078924, "lat": 51.520079, "lon": -0.1018612}, {"type": "node", "id": 1609307443, "lat": 51.5250058, "lon": -0.1102252}, {"type": "node", "id": 1609307448, "lat": 51.5250892, "lon": -0.1103484}, {"type": "node", "id": 1619464605, "lat": 51.5198678, "lon": -0.1521547}, {"type": "node", "id": 1619464607, "lat": 51.5198788, "lon": -0.1519199}, {"type": "node", "id": 1619464609, "lat": 51.5198892, "lon": -0.1519091}, {"type": "node", "id": 1619464610, "lat": 51.5199174, "lon": -0.1521606}, {"type": "node", "id": 1619464613, "lat": 51.5199201, "lon": -0.1521156}, {"type": "node", "id": 1619464631, "lat": 51.5199308, "lon": -0.1521163}, {"type": "node", "id": 1619464633, "lat": 51.5199338, "lon": -0.152051}, {"type": "node", "id": 1619464634, "lat": 51.5199425, "lon": -0.1519161}, {"type": "node", "id": 1620855355, "lat": 51.5151111, "lon": -0.1568948, "tags": {"amenity": "bar", "name": "The Churchill Bar", "note": "Part of hotel", "source": "survey"}}, {"type": "node", "id": 1620928670, "lat": 51.5242983, "lon": -0.1028261}, {"type": "node", "id": 1620979142, "lat": 51.5231501, "lon": -0.1005882}, {"type": "node", "id": 1620979144, "lat": 51.5232563, "lon": -0.1005128}, {"type": "node", "id": 1620979151, "lat": 51.5233224, "lon": -0.1005582}, {"type": "node", "id": 1621860517, "lat": 51.5133786, "lon": -0.1308508}, {"type": "node", "id": 1639959568, "lat": 51.4802005, "lon": -0.1975057}, {"type": "node", "id": 1639959572, "lat": 51.4802085, "lon": -0.1975111}, {"type": "node", "id": 1639959573, "lat": 51.4802107, "lon": -0.1973952}, {"type": "node", "id": 1639959577, "lat": 51.4802401, "lon": -0.1975326}, {"type": "node", "id": 1639959580, "lat": 51.4802769, "lon": -0.1975095}, {"type": "node", "id": 1639959591, "lat": 51.4803498, "lon": -0.1973057}, {"type": "node", "id": 1639959594, "lat": 51.480385, "lon": -0.1974365}, {"type": "node", "id": 1641049672, "lat": 51.4800285, "lon": -0.1921471}, {"type": "node", "id": 1641049789, "lat": 51.4800651, "lon": -0.1923369}, {"type": "node", "id": 1641049797, "lat": 51.4801018, "lon": -0.1922139}, {"type": "node", "id": 1641049835, "lat": 51.480111, "lon": -0.1924163}, {"type": "node", "id": 1641049842, "lat": 51.4801975, "lon": -0.1924149}, {"type": "node", "id": 1644594365, "lat": 51.4603847, "lon": -0.4466191}, {"type": "node", "id": 1646855365, "lat": 51.5026132, "lon": -0.1111609}, {"type": "node", "id": 1646855367, "lat": 51.5026093, "lon": -0.1111559}, {"type": "node", "id": 1656384035, "lat": 51.474592, "lon": -0.0363029, "tags": {"amenity": "bar", "name": "Student Union Bar"}}, {"type": "node", "id": 1657505552, "lat": 51.551427, "lon": -0.1112188}, {"type": "node", "id": 1657505556, "lat": 51.551464, "lon": -0.1112661}, {"type": "node", "id": 1657505569, "lat": 51.5514955, "lon": -0.1112239}, {"type": "node", "id": 1657505577, "lat": 51.5515217, "lon": -0.1112087}, {"type": "node", "id": 1657505599, "lat": 51.5514919, "lon": -0.1110507}, {"type": "node", "id": 1657505625, "lat": 51.5515581, "lon": -0.1111446}, {"type": "node", "id": 1657554122, "lat": 51.5514479, "lon": -0.1112462}, {"type": "node", "id": 1657554132, "lat": 51.5514551, "lon": -0.1111168}, {"type": "node", "id": 1657554147, "lat": 51.5514697, "lon": -0.1111381}, {"type": "node", "id": 1657554153, "lat": 51.5514698, "lon": -0.1112553}, {"type": "node", "id": 1657554180, "lat": 51.5514902, "lon": -0.1112167}, {"type": "node", "id": 1657554208, "lat": 51.5515111, "lon": -0.1111944}, {"type": "node", "id": 1658382438, "lat": 51.43725, "lon": -0.1271528, "tags": {"addr:city": "London", "addr:housenumber": "5", "addr:postcode": "SW16 1EF", "addr:street": "Streatham High Road", "amenity": "bar", "fhrs:id": "991350", "name": "Exhibit B", "opening_hours": "Mo-We 16:00-23:00; Th 16:00-24:00, Fr 16:00-02:00, Sa 12:00-02:00, Su 12:00-22:30", "source:addr": "FHRS Open Data"}}, {"type": "node", "id": 1662542806, "lat": 51.5003631, "lon": -0.0848347, "tags": {"amenity": "bar", "internet_access": "wlan", "name": "the Leather Exchange"}}, {"type": "node", "id": 1662606928, "lat": 51.5060174, "lon": -0.0995696, "tags": {"addr:city": "London", "addr:housenumber": "110", "addr:postcode": "SE1 0TF", "addr:street": "Southwark Street", "amenity": "bar", "fhrs:id": "363032", "indoor_seating": "yes", "name": "The Refinery", "opening_hours": "Mo-We 08:00-23:00; Th-Fr 08:00-00:00; Sa 10:00-00:00; Su 10:00-18:00", "outdoor_seating": "yes", "phone": "+44 845 468 0186", "website": "https://drakeandmorgan.co.uk/the-refinery-bankside", "wheelchair": "yes"}}, {"type": "node", "id": 1663300874, "lat": 51.5103386, "lon": -0.1148168}, {"type": "node", "id": 1663300877, "lat": 51.5102961, "lon": -0.1150622}, {"type": "node", "id": 1663300881, "lat": 51.5103603, "lon": -0.1147457}, {"type": "node", "id": 1663300891, "lat": 51.5103937, "lon": -0.1148342}, {"type": "node", "id": 1663300901, "lat": 51.5103937, "lon": -0.1147618}, {"type": "node", "id": 1663300937, "lat": 51.5103169, "lon": -0.1151266}, {"type": "node", "id": 1663300942, "lat": 51.510352, "lon": -0.115081}, {"type": "node", "id": 1668135490, "lat": 51.5195545, "lon": -0.0805967}, {"type": "node", "id": 1669491400, "lat": 51.5205378, "lon": -0.0980208, "tags": {"addr:city": "London", "addr:housenumber": "14-17", "addr:postcode": "EC1M 6AD", "addr:street": "Carthusian Street", "amenity": "bar", "name": "Neo", "opening_hours": "Mo-Th 12:00-00:00; Fr-Sa 12:00+", "phone": "+44 20 7726 8925", "website": "https://www.neobarbican.com/"}}, {"type": "node", "id": 1673219677, "lat": 51.5282183, "lon": -0.0927008}, {"type": "node", "id": 1673219693, "lat": 51.5282343, "lon": -0.0927579}, {"type": "node", "id": 1673219728, "lat": 51.528318, "lon": -0.0924795}, {"type": "node", "id": 1678155364, "lat": 51.5126147, "lon": -0.0936629}, {"type": "node", "id": 1678155365, "lat": 51.5126162, "lon": -0.0935581}, {"type": "node", "id": 1678155366, "lat": 51.5126234, "lon": -0.093627}, {"type": "node", "id": 1678283231, "lat": 51.5131168, "lon": -0.0793276}, {"type": "node", "id": 1682512981, "lat": 51.5133605, "lon": -0.0765767}, {"type": "node", "id": 1682512983, "lat": 51.51341, "lon": -0.0765876}, {"type": "node", "id": 1684709914, "lat": 51.5163243, "lon": -0.0940154, "tags": {"addr:city": "London", "addr:housenumber": "2", "addr:postcode": "EC2V 7JQ", "addr:street": "Love Lane", "amenity": "bar", "brand": "Slug and Lettuce", "brand:wikidata": "Q7542224", "cocktails": "yes", "fhrs:id": "295221", "food": "yes", "name": "Slug & Lettuce", "operator": "Stonegate", "operator:wikidata": "Q7619176", "source": "photograph", "website": "https://www.slugandlettuce.co.uk/st-pauls-london"}}, {"type": "node", "id": 1686463480, "lat": 51.5187195, "lon": -0.0929208}, {"type": "node", "id": 1686463491, "lat": 51.5187466, "lon": -0.0930379}, {"type": "node", "id": 1686463526, "lat": 51.5188788, "lon": -0.0928305}, {"type": "node", "id": 1686463539, "lat": 51.5189055, "lon": -0.0929458}, {"type": "node", "id": 1686470730, "lat": 51.4745579, "lon": -0.0362277, "tags": {"amenity": "bar", "internet_access": "wlan", "name": "Club Sandwich"}}, {"type": "node", "id": 1688441604, "lat": 51.5123972, "lon": -0.1333616}, {"type": "node", "id": 1688441606, "lat": 51.5123847, "lon": -0.1333456}, {"type": "node", "id": 1688441609, "lat": 51.5124424, "lon": -0.1333598}, {"type": "node", "id": 1688441619, "lat": 51.5124655, "lon": -0.1335403}, {"type": "node", "id": 1688441620, "lat": 51.5124982, "lon": -0.1332475}, {"type": "node", "id": 1688441621, "lat": 51.5125092, "lon": -0.1334454}, {"type": "node", "id": 1688441622, "lat": 51.5125465, "lon": -0.1333232}, {"type": "node", "id": 1688441623, "lat": 51.5125486, "lon": -0.1333568}, {"type": "node", "id": 1688441626, "lat": 51.5125496, "lon": -0.1333412}, {"type": "node", "id": 1689387894, "lat": 51.5102938, "lon": -0.0834471, "tags": {"addr:city": "London", "addr:housenumber": "2", "addr:postcode": "EC3R 8EE", "addr:street": "St. Mary at Hill", "amenity": "bar", "fhrs:id": "295078", "name": "Jamie's Wine Bar & Restaurant", "source": "photograph"}}, {"type": "node", "id": 1689387895, "lat": 51.5103094, "lon": -0.0846421, "tags": {"addr:city": "London", "addr:housenumber": "1", "addr:postcode": "EC3R 8DJ", "addr:street": "Saint George's Lane", "amenity": "bar", "fhrs:id": "294369", "name": "Steam Wine Bar", "source": "photograph"}}, {"type": "node", "id": 1689605575, "lat": 51.5138049, "lon": -0.0785213}, {"type": "node", "id": 1689605577, "lat": 51.5138185, "lon": -0.0785092}, {"type": "node", "id": 1689605579, "lat": 51.5138503, "lon": -0.0787738}, {"type": "node", "id": 1689605589, "lat": 51.5139018, "lon": -0.0787303}, {"type": "node", "id": 1694422151, "lat": 51.5223037, "lon": -0.07777}, {"type": "node", "id": 1694422152, "lat": 51.5223188, "lon": -0.0778369}, {"type": "node", "id": 1694422153, "lat": 51.5223206, "lon": -0.0777296}, {"type": "node", "id": 1694422154, "lat": 51.5223267, "lon": -0.0777565}, {"type": "node", "id": 1694422155, "lat": 51.5224028, "lon": -0.0776816}, {"type": "node", "id": 1694422156, "lat": 51.5224241, "lon": -0.0777754}, {"type": "node", "id": 1694505403, "lat": 51.5244907, "lon": -0.0814473}, {"type": "node", "id": 1694505406, "lat": 51.5244906, "lon": -0.0813667}, {"type": "node", "id": 1694505407, "lat": 51.5244912, "lon": -0.0816016}, {"type": "node", "id": 1694505408, "lat": 51.5244913, "lon": -0.0816799}, {"type": "node", "id": 1694505409, "lat": 51.5245063, "lon": -0.0816798}, {"type": "node", "id": 1694505411, "lat": 51.5245069, "lon": -0.0814472}, {"type": "node", "id": 1694505412, "lat": 51.5245072, "lon": -0.0816015}, {"type": "node", "id": 1694505420, "lat": 51.5245486, "lon": -0.0813664}, {"type": "node", "id": 1694505425, "lat": 51.5246222, "lon": -0.0816793}, {"type": "node", "id": 1694505426, "lat": 51.5246216, "lon": -0.0813661}, {"type": "node", "id": 1694671751, "lat": 51.5261609, "lon": -0.086111}, {"type": "node", "id": 1694671752, "lat": 51.5261742, "lon": -0.0860565}, {"type": "node", "id": 1694671753, "lat": 51.5261773, "lon": -0.0861211}, {"type": "node", "id": 1694671755, "lat": 51.5261857, "lon": -0.0860864}, {"type": "node", "id": 1694671792, "lat": 51.5262362, "lon": -0.0858012}, {"type": "node", "id": 1694671794, "lat": 51.5262444, "lon": -0.0861211}, {"type": "node", "id": 1694671795, "lat": 51.5262489, "lon": -0.0861023}, {"type": "node", "id": 1694671804, "lat": 51.5262712, "lon": -0.0860127}, {"type": "node", "id": 1694671811, "lat": 51.5263097, "lon": -0.0858545}, {"type": "node", "id": 1695378571, "lat": 51.5162765, "lon": -0.0808289, "tags": {"addr:city": "London", "addr:housename": "Heron Tower", "addr:housenumber": "110", "addr:postcode": "EC2N 4AY", "addr:street": "Bishopsgate", "amenity": "bar", "fhrs:id": "294970", "name": "The Drift Bar", "website": "http://thedriftbar.co.uk/", "wheelchair": "yes"}}, {"type": "node", "id": 1700140751, "lat": 51.5165638, "lon": -0.1259858}, {"type": "node", "id": 1700140756, "lat": 51.5165838, "lon": -0.1260564}, {"type": "node", "id": 1700140759, "lat": 51.5166038, "lon": -0.1259907}, {"type": "node", "id": 1700140763, "lat": 51.5166121, "lon": -0.1259865}, {"type": "node", "id": 1700289114, "lat": 51.5133687, "lon": -0.1312275}, {"type": "node", "id": 1700289139, "lat": 51.513394, "lon": -0.1310612}, {"type": "node", "id": 1700289141, "lat": 51.5133463, "lon": -0.1312122}, {"type": "node", "id": 1700289159, "lat": 51.5134415, "lon": -0.1309996}, {"type": "node", "id": 1700289164, "lat": 51.513426, "lon": -0.1310544}, {"type": "node", "id": 1700289213, "lat": 51.5135214, "lon": -0.1311209}, {"type": "node", "id": 1700289223, "lat": 51.5135372, "lon": -0.1310633}, {"type": "node", "id": 1700289239, "lat": 51.5135794, "lon": -0.1310927}, {"type": "node", "id": 1700289255, "lat": 51.5136062, "lon": -0.1309968}, {"type": "node", "id": 1700436086, "lat": 51.5124579, "lon": -0.1332028}, {"type": "node", "id": 1700436179, "lat": 51.5127304, "lon": -0.1333582}, {"type": "node", "id": 1700436198, "lat": 51.5127805, "lon": -0.1333993}, {"type": "node", "id": 1700436200, "lat": 51.5127881, "lon": -0.1332237}, {"type": "node", "id": 1700436238, "lat": 51.5128378, "lon": -0.1332629}, {"type": "node", "id": 1702356862, "lat": 51.4660033, "lon": -0.2144905}, {"type": "node", "id": 1708682030, "lat": 51.5014806, "lon": -0.018934, "tags": {"addr:city": "London", "addr:housename": "Discovery Dock Apartments West", "addr:housenumber": "2", "addr:postcode": "E14 9RT", "addr:street": "South Quay Square", "amenity": "bar", "fixme": "Is this really a separate entity from the amenity=restaurant? The amenity=cafe and amenity=bar have the same address, but only the restaurant has an FHRS record (fhrs:id=66673).", "name": "Hazev", "note": "In answer to the fixme question on the Hazev caf\u00e9 and Hazev bar, I can see the justification for mapping these as distinct entities from the Hazev restaurant. They have separate entrances and are operated as separate dining areas with separate cuisines.", "opening_hours": "Mo-Su 12:00-23:30", "source:addr:postcode": "FHRS Open Data", "wheelchair": "limited"}}, {"type": "node", "id": 1711057574, "lat": 51.459674, "lon": -0.2113756}, {"type": "node", "id": 1711057607, "lat": 51.4600714, "lon": -0.2125216}, {"type": "node", "id": 1711071494, "lat": 51.4610427, "lon": -0.2172205}, {"type": "node", "id": 1711071498, "lat": 51.4610475, "lon": -0.217365}, {"type": "node", "id": 1711071501, "lat": 51.4610652, "lon": -0.2171999}, {"type": "node", "id": 1711071515, "lat": 51.4611806, "lon": -0.2171523}, {"type": "node", "id": 1711071526, "lat": 51.4612089, "lon": -0.2172829}, {"type": "node", "id": 1711679600, "lat": 51.5213879, "lon": -0.0845017}, {"type": "node", "id": 1711679602, "lat": 51.5214025, "lon": -0.0846795}, {"type": "node", "id": 1711679604, "lat": 51.5214125, "lon": -0.0846836}, {"type": "node", "id": 1711679609, "lat": 51.5214205, "lon": -0.0844948}, {"type": "node", "id": 1711679610, "lat": 51.5214227, "lon": -0.0845212}, {"type": "node", "id": 1711679616, "lat": 51.5214359, "lon": -0.0845184}, {"type": "node", "id": 1711679617, "lat": 51.5214372, "lon": -0.0845342}, {"type": "node", "id": 1711679624, "lat": 51.5214484, "lon": -0.0846697}, {"type": "node", "id": 1717077711, "lat": 51.4801101, "lon": -0.1923706}, {"type": "node", "id": 1718566911, "lat": 51.5156239, "lon": -0.0903633}, {"type": "node", "id": 1718566938, "lat": 51.5157359, "lon": -0.0903555}, {"type": "node", "id": 1718566945, "lat": 51.5157536, "lon": -0.0903534}, {"type": "node", "id": 1719875242, "lat": 51.5125758, "lon": -0.0936702}, {"type": "node", "id": 1719875246, "lat": 51.5125867, "lon": -0.0935482}, {"type": "node", "id": 1719875516, "lat": 51.513296, "lon": -0.09276}, {"type": "node", "id": 1719875525, "lat": 51.5133487, "lon": -0.092757}, {"type": "node", "id": 1719875529, "lat": 51.5133704, "lon": -0.0929353}, {"type": "node", "id": 1719899601, "lat": 51.5133134, "lon": -0.0938575}, {"type": "node", "id": 1719899605, "lat": 51.5133327, "lon": -0.092951}, {"type": "node", "id": 1719899609, "lat": 51.5133498, "lon": -0.0940709}, {"type": "node", "id": 1719899613, "lat": 51.5133581, "lon": -0.0938385}, {"type": "node", "id": 1719899615, "lat": 51.5133711, "lon": -0.0939122}, {"type": "node", "id": 1719899619, "lat": 51.5133851, "lon": -0.093903}, {"type": "node", "id": 1719899625, "lat": 51.5134085, "lon": -0.0940441}, {"type": "node", "id": 1719899658, "lat": 51.5136161, "lon": -0.0931951}, {"type": "node", "id": 1719899659, "lat": 51.513635, "lon": -0.0931536}, {"type": "node", "id": 1719899660, "lat": 51.5136393, "lon": -0.0933134}, {"type": "node", "id": 1719899661, "lat": 51.5136415, "lon": -0.0931818}, {"type": "node", "id": 1719899665, "lat": 51.5136713, "lon": -0.0931346}, {"type": "node", "id": 1719899666, "lat": 51.5136867, "lon": -0.0932135}, {"type": "node", "id": 1719899667, "lat": 51.5137375, "lon": -0.0931917}, {"type": "node", "id": 1719899669, "lat": 51.5137515, "lon": -0.0932579}, {"type": "node", "id": 1721678845, "lat": 51.5132905, "lon": -0.092808}, {"type": "node", "id": 1721678851, "lat": 51.5133172, "lon": -0.0927588}, {"type": "node", "id": 1721678853, "lat": 51.5133517, "lon": -0.0927813}, {"type": "node", "id": 1721678855, "lat": 51.5133618, "lon": -0.0928649}, {"type": "node", "id": 1726730363, "lat": 51.5140853, "lon": -0.1024176}, {"type": "node", "id": 1727000365, "lat": 51.4792278, "lon": -0.0098712}, {"type": "node", "id": 1727000367, "lat": 51.4792945, "lon": -0.0099798}, {"type": "node", "id": 1727000368, "lat": 51.4792964, "lon": -0.0097627}, {"type": "node", "id": 1727000369, "lat": 51.4793631, "lon": -0.0098713}, {"type": "node", "id": 1732787429, "lat": 51.5109651, "lon": -0.0891734}, {"type": "node", "id": 1732787481, "lat": 51.5108363, "lon": -0.0891934}, {"type": "node", "id": 1732787573, "lat": 51.510946, "lon": -0.0891123}, {"type": "node", "id": 1732787710, "lat": 51.5109589, "lon": -0.0893263}, {"type": "node", "id": 1733914347, "lat": 51.5130627, "lon": -0.113222}, {"type": "node", "id": 1733914350, "lat": 51.5130936, "lon": -0.1131332}, {"type": "node", "id": 1736685565, "lat": 51.5178921, "lon": -0.1030536}, {"type": "node", "id": 1736685566, "lat": 51.5179158, "lon": -0.1033036}, {"type": "node", "id": 1753758015, "lat": 51.5425048, "lon": -0.1483794}, {"type": "node", "id": 1753758021, "lat": 51.5425317, "lon": -0.1483664}, {"type": "node", "id": 1753758027, "lat": 51.5426233, "lon": -0.1483203}, {"type": "node", "id": 1753758029, "lat": 51.5426496, "lon": -0.1490787}, {"type": "node", "id": 1753758037, "lat": 51.5427561, "lon": -0.1489763}, {"type": "node", "id": 1754142781, "lat": 51.5135582, "lon": -0.1052849, "tags": {"addr:city": "London", "addr:housenumber": "1", "addr:street": "St Brides Passage", "amenity": "bar", "name": "Humble Grape", "website": "https://www.humblegrape.co.uk/fleet-street"}}, {"type": "node", "id": 1754993890, "lat": 51.5264123, "lon": -0.0802456}, {"type": "node", "id": 1754993897, "lat": 51.5262451, "lon": -0.0799456}, {"type": "node", "id": 1754993901, "lat": 51.5264312, "lon": -0.0799013}, {"type": "node", "id": 1754993909, "lat": 51.5264206, "lon": -0.0800876}, {"type": "node", "id": 1754993913, "lat": 51.5263506, "lon": -0.0798272}, {"type": "node", "id": 1754993931, "lat": 51.5262561, "lon": -0.0798145}, {"type": "node", "id": 1754993951, "lat": 51.5263384, "lon": -0.0799533}, {"type": "node", "id": 1756648042, "lat": 51.526698, "lon": -0.0808374}, {"type": "node", "id": 1756648043, "lat": 51.5268185, "lon": -0.0807431}, {"type": "node", "id": 1756648045, "lat": 51.5268434, "lon": -0.0806209}, {"type": "node", "id": 1756648047, "lat": 51.5267198, "lon": -0.0807206}, {"type": "node", "id": 1756648058, "lat": 51.5267384, "lon": -0.0806116}, {"type": "node", "id": 1756648060, "lat": 51.5267943, "lon": -0.080852}, {"type": "node", "id": 1758886904, "lat": 51.5253737, "lon": -0.0806604}, {"type": "node", "id": 1758886910, "lat": 51.5253737, "lon": -0.0807126}, {"type": "node", "id": 1758886912, "lat": 51.5253807, "lon": -0.080662}, {"type": "node", "id": 1758886915, "lat": 51.5253837, "lon": -0.0804313}, {"type": "node", "id": 1758891616, "lat": 51.5261113, "lon": -0.0798189}, {"type": "node", "id": 1758891619, "lat": 51.5261255, "lon": -0.0795981}, {"type": "node", "id": 1758891620, "lat": 51.5261278, "lon": -0.0795626}, {"type": "node", "id": 1758891621, "lat": 51.5261334, "lon": -0.079475}, {"type": "node", "id": 1758891622, "lat": 51.5261348, "lon": -0.0794528}, {"type": "node", "id": 1758891623, "lat": 51.5261373, "lon": -0.0794136}, {"type": "node", "id": 1758891624, "lat": 51.5261398, "lon": -0.0793748}, {"type": "node", "id": 1758891628, "lat": 51.5261947, "lon": -0.0798327}, {"type": "node", "id": 1758891629, "lat": 51.5262012, "lon": -0.079385}, {"type": "node", "id": 1758891632, "lat": 51.5262089, "lon": -0.079612}, {"type": "node", "id": 1758891633, "lat": 51.5262232, "lon": -0.0793887}, {"type": "node", "id": 1758900354, "lat": 51.5253303, "lon": -0.0800117}, {"type": "node", "id": 1758900356, "lat": 51.5253263, "lon": -0.080215}, {"type": "node", "id": 1758900371, "lat": 51.5253723, "lon": -0.0800093}, {"type": "node", "id": 1758900374, "lat": 51.5253728, "lon": -0.0800797}, {"type": "node", "id": 1758900427, "lat": 51.5255426, "lon": -0.080215}, {"type": "node", "id": 1758900429, "lat": 51.5255464, "lon": -0.0800777}, {"type": "node", "id": 1758951535, "lat": 51.5263227, "lon": -0.0798234}, {"type": "node", "id": 1758951547, "lat": 51.526345, "lon": -0.0798849}, {"type": "node", "id": 1758951591, "lat": 51.5265049, "lon": -0.0799148}, {"type": "node", "id": 1758951642, "lat": 51.5265496, "lon": -0.0799205}, {"type": "node", "id": 1758951655, "lat": 51.5266333, "lon": -0.0799311}, {"type": "node", "id": 1758951733, "lat": 51.5267339, "lon": -0.080645}, {"type": "node", "id": 1761161816, "lat": 51.5274036, "lon": -0.0776991}, {"type": "node", "id": 1761161843, "lat": 51.5274186, "lon": -0.0778943}, {"type": "node", "id": 1761161852, "lat": 51.5274564, "lon": -0.0776891}, {"type": "node", "id": 1761161853, "lat": 51.5274581, "lon": -0.0777122}, {"type": "node", "id": 1761161909, "lat": 51.5275253, "lon": -0.0776966}, {"type": "node", "id": 1761161910, "lat": 51.527531, "lon": -0.077672},